[[[{"id":"228","barId":"35","paid":"0","rev":"0","taxId":"D 796476","name":"YELLOW ROSE DISTILLING LLC    ","address":"1224 N POST OAK RD STE 100    ","zip":"77055","lat":"29.788519","lng":"-95.455744"},{"id":"328","barId":"46","paid":"0","rev":"0","taxId":"D 825843","name":"BJ HOOKER'S DISTILLERIES, LLC ","address":"1300 E RICHEY RD STE B        ","zip":"77073","lat":"29.994909","lng":"-95.386831"},{"id":"725","barId":"86","paid":"1229.24","rev":"18346.86567164179","taxId":"MB067702","name":"COPPERFIELD BOWL              ","address":"15615 GLEN CHASE DR           ","zip":"77095","lat":"29.8824654","lng":"-95.6426286"},{"id":"771","barId":"89","paid":"939.87","rev":"14027.910447761193","taxId":"MB070012","name":"LONE STAR SALOON              ","address":"1900 TRAVIS ST                ","zip":"77002","lat":"29.7507888","lng":"-95.3714548"},{"id":"817","barId":"92","paid":"206.36","rev":"3080","taxId":"MB071681","name":"PAPPAS BAR-B-Q                ","address":"1217 PIERCE ST                ","zip":"77002","lat":"29.7482711","lng":"-95.3685065"},{"id":"862","barId":"95","paid":"13396.85","rev":"199952.98507462686","taxId":"MB073343","name":"POLK SMITH REGENCY INC        ","address":"1200 LOUISIANA                ","zip":"77002","lat":"29.7570609","lng":"-95.3694708"},{"id":"998","barId":"105","paid":"3463.9","rev":"51700","taxId":"MB078209","name":"BOWLMOR HOUSTON               ","address":"925 BUNKER HILL RD            ","zip":"77024","lat":"29.7801661","lng":"-95.5322621"},{"id":"1013","barId":"106","paid":"0","rev":"0","taxId":"MB078384","name":"AMF CLEAR LAKE BOWL           ","address":"16743 DIANA LN                ","zip":"77062","lat":"29.557698","lng":"-95.11874"},{"id":"1103","barId":"112","paid":"1425.49","rev":"21275.97014925373","taxId":"MB081307","name":"RED LOBSTER OF TEXAS INC 841  ","address":"13232 NORTHWEST FWY           ","zip":"77040","lat":"29.8474635","lng":"-95.5013565"},{"id":"1147","barId":"115","paid":"2684.48","rev":"40066.86567164179","taxId":"MB082293","name":"E J'S                         ","address":"2517 RALPH ST                 ","zip":"77006","lat":"29.7432858","lng":"-95.4010554"},{"id":"1500","barId":"140","paid":"12838.8","rev":"191623.8805970149","taxId":"MB093000","name":"CORNER ENTERTAINMENT          ","address":"2736 VIRGINIA ST              ","zip":"77098","lat":"29.7414717","lng":"-95.4214246"},{"id":"1649","barId":"150","paid":"2755.3","rev":"41123.880597014926","taxId":"MB096819","name":"BRAE-BURN COUNTRY CLUB        ","address":"8101 BISSONNET ST             ","zip":"77074","lat":"29.675866","lng":"-95.521176"},{"id":"1797","barId":"160","paid":"764.13","rev":"11404.925373134327","taxId":"MB099381","name":"SEGARI'S                      ","address":"1503 SHEPHERD DR              ","zip":"77007","lat":"29.7743955","lng":"-95.4097956"},{"id":"1864","barId":"165","paid":"2214.75","rev":"33055.97014925373","taxId":"MB100939","name":"BENIHANA OF TOKYO             ","address":"1318 LOUISIANA ST             ","zip":"77002","lat":"29.7561725","lng":"-95.3697628"},{"id":"1960","barId":"172","paid":"1692.21","rev":"25256.86567164179","taxId":"MB104013","name":"BRADY'S LANDING #21           ","address":"8505 CYPRESS STREET           ","zip":"77012","lat":"29.7254202","lng":"-95.2754179"},{"id":"1975","barId":"173","paid":"3386.24","rev":"50540.895522388055","taxId":"MB104526","name":"BENIHANA OF TOKYO             ","address":"9707 WESTHEIMER RD            ","zip":"77042","lat":"29.7365359","lng":"-95.540203"},{"id":"2072","barId":"180","paid":"1131.76","rev":"16891.940298507463","taxId":"MB105716","name":"MERINO'S LOUNGE \u0026 LA PLAYA RES","address":"7143 HARRISBURG BLVD          ","zip":"77011","lat":"29.7344785","lng":"-95.2983556"},{"id":"2251","barId":"195","paid":"9597.48","rev":"143245.97014925373","taxId":"MB108523","name":"PALM RESTAURANT               ","address":"6100 WESTHEIMER SUITE 100     ","zip":"77057","lat":"29.7389967","lng":"-95.4905009"},{"id":"2538","barId":"216","paid":"341.9","rev":"5102.985074626865","taxId":"MB113378","name":"CHINA GARDEN                  ","address":"1602 LEELAND ST               ","zip":"77003","lat":"29.7490465","lng":"-95.3631509"},{"id":"2553","barId":"217","paid":"282","rev":"4208.955223880596","taxId":"MB113437","name":"AMF WINDFERN BOWL #397        ","address":"14441 NORTHWEST FWY           ","zip":"77040","lat":"29.86337","lng":"-95.535195"},{"id":"2568","barId":"218","paid":"2448.91","rev":"36550.895522388055","taxId":"MB113723","name":"WISH'S CLUB \u0026 RESTAURANT      ","address":"14918 NORTHWEST FWY           ","zip":"77040","lat":"29.8697643","lng":"-95.5463127"},{"id":"2598","barId":"221","paid":"2885.48","rev":"43066.86567164179","taxId":"MB113805","name":"NINO'S RESTAURANT AND BAR, INC","address":"2817 W DALLAS ST              ","zip":"77019","lat":"29.7571789","lng":"-95.3953694"},{"id":"2626","barId":"223","paid":"54.87","rev":"818.9552238805969","taxId":"MB116041","name":"VERONA RESTAURANT CORP        ","address":"3995 S GESSNER RD             ","zip":"77063","lat":"29.7207523","lng":"-95.5389578"},{"id":"2672","barId":"226","paid":"268.4","rev":"4005.9701492537306","taxId":"MB117478","name":"MERIDA RESTAURANT             ","address":"2509 NAVIGATION BLVD          ","zip":"77003","lat":"29.7582239","lng":"-95.3437146"},{"id":"2786","barId":"235","paid":"1056.92","rev":"15774.925373134329","taxId":"MB118927","name":"RED RIVER ICEHOUSE            ","address":"10308 MAIN ST                 ","zip":"77025","lat":"29.67394","lng":"-95.4311025"},{"id":"2801","barId":"236","paid":"12573.28","rev":"187660.89552238805","taxId":"MB119014","name":"TASTE OF TEXAS                ","address":"10505 KATY FWY                ","zip":"77024","lat":"29.7828129","lng":"-95.5569162"},{"id":"2864","barId":"240","paid":"0","rev":"0","taxId":"MB121117","name":"CORRAL CLUB                   ","address":"2000 SOUTH LOOP W             ","zip":"77054","lat":"29.678505","lng":"-95.4086909"},{"id":"2967","barId":"247","paid":"1344.02","rev":"20060","taxId":"MB122723","name":"RED LOBSTER RESTAURANT #840   ","address":"302 FM 1960 RD W              ","zip":"77090","lat":"30.0205293","lng":"-95.4333792"},{"id":"3085","barId":"255","paid":"1318.29","rev":"19675.970149253728","taxId":"MB124844","name":"EL JARDIN RESTAURANT          ","address":"7849 HARRISBURG BLVD          ","zip":"77012","lat":"29.7305476","lng":"-95.28425"},{"id":"3218","barId":"264","paid":"2076.12","rev":"30986.865671641786","taxId":"MB126836","name":"LA COLOMBE D'OR               ","address":"3410 MONTROSE                 ","zip":"77006","lat":"29.7416593","lng":"-95.3916064"},{"id":"3276","barId":"268","paid":"836.49","rev":"12484.925373134327","taxId":"MB127887","name":"CHRISTIE'S SEAFOOD \u0026 STEAKS   ","address":"6029 WESTHEIMER RD            ","zip":"77057","lat":"29.7372448","lng":"-95.4895866"},{"id":"3505","barId":"285","paid":"1378.05","rev":"20567.91044776119","taxId":"MB132720","name":"LECHNER'S                     ","address":"2503 S GESSNER RD             ","zip":"77063","lat":"29.7403865","lng":"-95.5375389"},{"id":"3559","barId":"289","paid":"2442.21","rev":"36450.895522388055","taxId":"MB133225","name":"JUNIOR LEAGUE OF HOUSTON      ","address":"1811 BRIAR OAKS LN            ","zip":"77027","lat":"29.7487637","lng":"-95.4505409"},{"id":"3646","barId":"296","paid":"1036.82","rev":"15474.925373134327","taxId":"MB134940","name":"LULING CITY MARKET BAR-B-QUE R","address":"4726 RICHMOND AVE             ","zip":"77027","lat":"29.7329359","lng":"-95.4571478"},{"id":"3767","barId":"304","paid":"1390.98","rev":"20760.89552238806","taxId":"MB137161","name":"RED LOBSTER OF TEXAS INC #864 ","address":"2760 HIGHWAY 6 S              ","zip":"77082","lat":"29.726345","lng":"-95.6448407"},{"id":"4183","barId":"333","paid":"1682.3","rev":"25108.955223880595","taxId":"MB146576","name":"ART OF THE SPIRITS INC        ","address":"5600 FANNIN ST                ","zip":"77004","lat":"29.7252762","lng":"-95.3887669"},{"id":"4212","barId":"335","paid":"0","rev":"0","taxId":"MB147098","name":"BLANCO'S                      ","address":"3406 W ALABAMA ST             ","zip":"77027","lat":"29.738645","lng":"-95.4312728"},{"id":"4329","barId":"343","paid":"3709.05","rev":"55358.9552238806","taxId":"MB149740","name":"TGI FRIDAY'S                  ","address":"12895 GULF FREEWAY            ","zip":"77034","lat":"29.6149067","lng":"-95.2135301"},{"id":"4344","barId":"344","paid":"3228.66","rev":"48188.95522388059","taxId":"MB149847","name":"CLUB ONYX HOUSTON             ","address":"3113 BERING DR                ","zip":"77057","lat":"29.7325912","lng":"-95.4800565"},{"id":"4389","barId":"347","paid":"3272.95","rev":"48849.99999999999","taxId":"MB150255","name":"LOLA'S DEPOT                  ","address":"2327 GRANT ST                 ","zip":"77006","lat":"29.7483704","lng":"-95.3910045"},{"id":"4494","barId":"354","paid":"7233.38","rev":"107960.89552238806","taxId":"MB151670","name":"BACK STREET CAFE              ","address":"1103 S SHEPHERD DR            ","zip":"77019","lat":"29.7552973","lng":"-95.4086418"},{"id":"4524","barId":"356","paid":"1603.51","rev":"23932.985074626864","taxId":"MB151952","name":"CARMELO'S ITALIAN RESTAURANT  ","address":"14795 MEMORIAL DR             ","zip":"77079","lat":"29.7712428","lng":"-95.612523"},{"id":"4597","barId":"362","paid":"2234.78","rev":"33354.92537313433","taxId":"MB152365","name":"EL MESON SPANISH MEXICAN RESTA","address":"2425 UNIVERSITY BLVD          ","zip":"77005","lat":"29.714812","lng":"-95.415996"},{"id":"4612","barId":"363","paid":"4395.33","rev":"65601.94029850746","taxId":"MB152548","name":"PAPPAS SEAFOOD HOUSE \u0026 OYSTER ","address":"12010 EAST FWY                ","zip":"77029","lat":"29.7711745","lng":"-95.2257563"},{"id":"4657","barId":"366","paid":"25344.42","rev":"378274.92537313426","taxId":"MB153105","name":"PAPPAS BROS STEAKHOUSE        ","address":"5839 WESTHEIMER RD            ","zip":"77057","lat":"29.7372735","lng":"-95.4817011"},{"id":"4672","barId":"367","paid":"6270.53","rev":"93589.99999999999","taxId":"MB153113","name":"PAPPADEAUX SEAFOOD KITCHEN    ","address":"6015 WESTHEIMER RD            ","zip":"77057","lat":"29.7367156","lng":"-95.4885416"},{"id":"4746","barId":"372","paid":"5921.92","rev":"88386.86567164179","taxId":"MB153755","name":"LOPEZ MEXICAN RESTAURANT      ","address":"11606 WILCREST DR             ","zip":"77099","lat":"29.6534882","lng":"-95.5704426"},{"id":"4761","barId":"373","paid":"1966.78","rev":"29354.925373134327","taxId":"MB154030","name":"DOUBLE T'S BAR \u0026 GRILL        ","address":"14933 BELLAIRE BLVD           ","zip":"77083","lat":"29.7018622","lng":"-95.6504472"},{"id":"4910","barId":"383","paid":"4907.88","rev":"73251.94029850746","taxId":"MB155132","name":"PAPPASITO'S CANTINA           ","address":"6445 RICHMOND AVE             ","zip":"77057","lat":"29.7311939","lng":"-95.5002998"},{"id":"4995","barId":"388","paid":"165.82","rev":"2474.9253731343283","taxId":"MB156781","name":"PICO'S RESTAURANT             ","address":"5941 BELLAIRE BLVD            ","zip":"77081","lat":"29.7052908","lng":"-95.486003"},{"id":"5053","barId":"393","paid":"7235.53","rev":"107992.98507462685","taxId":"MB157774","name":"LUPE TORTILLAS MEXICAN RESTAUR","address":"308 STAFFORD ST               ","zip":"77079","lat":"29.782813","lng":"-95.643062"},{"id":"5258","barId":"408","paid":"6357.49","rev":"94887.91044776118","taxId":"MB159633","name":"TONY MANDOLA'S                ","address":"1212 WAUGH DR                 ","zip":"77019","lat":"29.755876","lng":"-95.3984784"},{"id":"5288","barId":"411","paid":"1713.12","rev":"25568.955223880595","taxId":"MB160467","name":"CHILI'S HAMBURGER GRILL \u0026 BAR ","address":"12897 GULF FWY                ","zip":"77034","lat":"29.614237","lng":"-95.2127633"},{"id":"5408","barId":"419","paid":"2713.5","rev":"40500","taxId":"MB161360","name":"BABA YEGA                     ","address":"2607 GRANT ST                 ","zip":"77006","lat":"29.7462362","lng":"-95.390185"},{"id":"5558","barId":"430","paid":"5337.22","rev":"79660","taxId":"MB162826","name":"PAPPAS SEAFOOD HOUSE \u0026 OYSTER ","address":"11301 NORTH FWY               ","zip":"77037","lat":"29.9296088","lng":"-95.4129379"},{"id":"5588","barId":"432","paid":"2538.49","rev":"37887.91044776119","taxId":"MB162968","name":"MOLLY'S PUB                   ","address":"11128 WESTHEIMER RD           ","zip":"77042","lat":"29.7368377","lng":"-95.573273"},{"id":"5618","barId":"435","paid":"497.87","rev":"7430.895522388059","taxId":"MB163213","name":"AMF WILLOW LANES              ","address":"19102 STATE HIGHWAY 249       ","zip":"77070","lat":"29.972388","lng":"-95.5609127"},{"id":"5810","barId":"448","paid":"386.18","rev":"5763.880597014925","taxId":"MB166026","name":"KOREA GARDEN RESTAURANT       ","address":"9501 LONG POINT RD STE Z      ","zip":"77055","lat":"29.7966912","lng":"-95.5258214"},{"id":"5884","barId":"453","paid":"1706.35","rev":"25467.91044776119","taxId":"MB166783","name":"CAVATORE ITALIAN RESTAURANT   ","address":"2120 ELLA BLVD                ","zip":"77008","lat":"29.8050732","lng":"-95.4287959"},{"id":"5916","barId":"456","paid":"1815.56","rev":"27097.91044776119","taxId":"MB166951","name":"CHILI'S GRILL \u0026 BAR           ","address":"3215 SOUTHWEST FWY            ","zip":"77027","lat":"29.7289519","lng":"-95.42903"},{"id":"5985","barId":"461","paid":"1882.29","rev":"28093.880597014922","taxId":"MB167527","name":"CHILI'S GRILL \u0026 BAR           ","address":"19825 NORTHWEST FWY           ","zip":"77065","lat":"29.9151218","lng":"-95.6159982"},{"id":"6030","barId":"464","paid":"0","rev":"0","taxId":"MB167637","name":"ARAMARK EDUCATIONAL SERVICES O","address":"3874 HOLMAN ST STE D          ","zip":"77004","lat":"29.7238713","lng":"-95.3476228"},{"id":"6251","barId":"481","paid":"853.11","rev":"12732.985074626866","taxId":"MB169850","name":"FAJITA WILLIES CAFE \u0026 CANTINA ","address":"14960 NORTHWEST FWY           ","zip":"77040","lat":"29.8698015","lng":"-95.5463983"},{"id":"6471","barId":"498","paid":"11151.34","rev":"166437.91044776118","taxId":"MB173796","name":"PAPPASITO'S CANTINA 2         ","address":"15280 NORTH FWY               ","zip":"77090","lat":"29.9888266","lng":"-95.4231303"},{"id":"6486","barId":"499","paid":"4450.34","rev":"66422.98507462686","taxId":"MB173979","name":"BLYTHE SPIRITS                ","address":"600 W GRAY ST                 ","zip":"77019","lat":"29.7535945","lng":"-95.388358"},{"id":"6546","barId":"505","paid":"415.46","rev":"6200.895522388059","taxId":"MB174835","name":"CHILI'S HAMBURGER GRILL \u0026 BAR ","address":"1040 W SAM HOUSTON PKWY N     ","zip":"77043","lat":"29.786091","lng":"-95.56184"},{"id":"6682","barId":"514","paid":"1975.89","rev":"29490.89552238806","taxId":"MB176689","name":"SPAGHETTI WAREHOUSE LICENSE IN","address":"901 COMMERCE ST               ","zip":"77002","lat":"29.764378","lng":"-95.3600699"},{"id":"6742","barId":"519","paid":"4775.55","rev":"71276.86567164179","taxId":"MB176999","name":"TC'S BAR                      ","address":"817 FAIRVIEW ST               ","zip":"77006","lat":"29.7478922","lng":"-95.3902903"},{"id":"6766","barId":"521","paid":"447.29","rev":"6675.9701492537315","taxId":"MB177207","name":"CASA OLE RESTAURANT (#28)     ","address":"12350 GULF FWY                ","zip":"77034","lat":"29.6178898","lng":"-95.2191485"},{"id":"6824","barId":"525","paid":"844.13","rev":"12598.955223880595","taxId":"MB177548","name":"NIPPON RESTAURANT             ","address":"4464 MONTROSE BLVD            ","zip":"77006","lat":"29.7326988","lng":"-95.3914014"},{"id":"6839","barId":"526","paid":"1630.04","rev":"24328.955223880595","taxId":"MB177556","name":"GOODE COMPANY HAMBURGER       ","address":"4902 KIRBY DR                 ","zip":"77098","lat":"29.7282884","lng":"-95.4190304"},{"id":"6897","barId":"530","paid":"2435.91","rev":"36356.86567164179","taxId":"MB177916","name":"VINCENT'S ITALIAN SANDWICH BAR","address":"2701 W DALLAS ST              ","zip":"77019","lat":"29.7572264","lng":"-95.3950101"},{"id":"6911","barId":"531","paid":"1730.4","rev":"25826.86567164179","taxId":"MB178008","name":"ZANZIBAR HOUSTON              ","address":"9003 WESTHEIMER STREET        ","zip":"77063","lat":"29.7368863","lng":"-95.5231653"},{"id":"6979","barId":"536","paid":"2469.55","rev":"36858.9552238806","taxId":"MB178154","name":"I-37 INC                      ","address":"9100 GULF FWY                 ","zip":"77017","lat":"29.657427","lng":"-95.2564766"},{"id":"7063","barId":"542","paid":"1947.15","rev":"29061.940298507463","taxId":"MB179311","name":"CHILI'S GRILL \u0026 BAR           ","address":"5015 WESTHEIMER RD STE 1310   ","zip":"77056","lat":"29.739545","lng":"-95.462716"},{"id":"7078","barId":"543","paid":"3453.38","rev":"51542.985074626864","taxId":"MB179481","name":"PLAYMATES                     ","address":"9605 SOUTHWEST FWY            ","zip":"77074","lat":"29.6749394","lng":"-95.5421399"},{"id":"7251","barId":"555","paid":"7766.57","rev":"115918.95522388059","taxId":"MB180777","name":"RON'S PUB                     ","address":"1826 FOUNTAIN VIEW DR         ","zip":"77057","lat":"29.748609","lng":"-95.4864737"},{"id":"7281","barId":"557","paid":"1796.8","rev":"26817.91044776119","taxId":"MB181003","name":"T K BITTERMAN'S               ","address":"2010 W ALABAMA ST             ","zip":"77098","lat":"29.7387933","lng":"-95.4086238"},{"id":"7340","barId":"561","paid":"488.89","rev":"7296.86567164179","taxId":"MB182711","name":"ICE CREAM CASTLES             ","address":"7309 FULTON ST                ","zip":"77022","lat":"29.827736","lng":"-95.3766361"},{"id":"7526","barId":"576","paid":"1631.98","rev":"24357.910447761195","taxId":"MB184962","name":"TYMES SQUARE                  ","address":"4620 W FUQUA                  ","zip":"77045","lat":"29.613704","lng":"-95.448117"},{"id":"7541","barId":"577","paid":"1431.58","rev":"21366.86567164179","taxId":"MB185359","name":"LA HACIENDA                   ","address":"14759 MEMORIAL DR             ","zip":"77079","lat":"29.7705412","lng":"-95.611425"},{"id":"7629","barId":"583","paid":"1695.5","rev":"25305.97014925373","taxId":"MB186261","name":"MOLLY MAGUIRE'S               ","address":"15945 KUYKENDAHL RD           ","zip":"77068","lat":"30.009189","lng":"-95.466077"},{"id":"7674","barId":"586","paid":"4310.17","rev":"64330.895522388055","taxId":"MB186575","name":"CIRO'S ITALIAN GRILL          ","address":"9755 KATY FWY                 ","zip":"77024","lat":"29.7833444","lng":"-95.533797"},{"id":"7779","barId":"593","paid":"14371.96","rev":"214506.86567164178","taxId":"MB187663","name":"CARRABBA'S                    ","address":"3115 KIRBY DR                 ","zip":"77098","lat":"29.7367144","lng":"-95.418308"},{"id":"7928","barId":"603","paid":"2140.65","rev":"31950","taxId":"MB189075","name":"MIYAKO II                     ","address":"3910 KIRBY DR                 ","zip":"77098","lat":"29.73223","lng":"-95.4193774"},{"id":"7971","barId":"606","paid":"2125.77","rev":"31727.91044776119","taxId":"MB189416","name":"THE OLIVE GARDEN ITALIAN RESTA","address":"9750 KATY FWY                 ","zip":"77055","lat":"29.786215","lng":"-95.5357307"},{"id":"8016","barId":"609","paid":"5576.14","rev":"83225.97014925373","taxId":"MB189719","name":"GOODE COMPANY TEXAS SEAFOOD   ","address":"2621 WESTPARK DR              ","zip":"77098","lat":"29.728296","lng":"-95.420229"},{"id":"8091","barId":"614","paid":"1450.08","rev":"21642.985074626864","taxId":"MB190271","name":"OLIVE GARDEN OF TEXAS INC #104","address":"10830 NORTHWEST FWY           ","zip":"77092","lat":"29.8162691","lng":"-95.4639984"},{"id":"8106","barId":"615","paid":"10588.34","rev":"158034.92537313432","taxId":"MB190273","name":"RICHMOND ARMS                 ","address":"5920 RICHMOND AVE             ","zip":"77057","lat":"29.7318417","lng":"-95.4832741"},{"id":"8121","barId":"616","paid":"1956.33","rev":"29198.955223880595","taxId":"MB190362","name":"NUMBERS                       ","address":"300 WESTHEIMER RD             ","zip":"77006","lat":"29.7447461","lng":"-95.3849427"},{"id":"8341","barId":"632","paid":"1809.8","rev":"27011.94029850746","taxId":"MB193220","name":"FAJITA FLATS                  ","address":"2929 FONDREN RD               ","zip":"77063","lat":"29.7340613","lng":"-95.5202083"},{"id":"8388","barId":"635","paid":"2089.06","rev":"31179.999999999996","taxId":"MB193660","name":"DUKE'S TAVERN                 ","address":"1010 S MASON RD STE C         ","zip":"77450","lat":"29.7667272","lng":"-95.7522655"},{"id":"8491","barId":"643","paid":"535.12","rev":"7986.865671641791","taxId":"MB194723","name":"TEQUILA PATIO                 ","address":"23237 ALDINE WESTFIELD RD     ","zip":"77373","lat":"30.0502559","lng":"-95.3884416"},{"id":"8596","barId":"651","paid":"418.28","rev":"6242.985074626865","taxId":"MB196017","name":"THE ORIGINAL EL GALLO MEX REST","address":"12527 JONES RD                ","zip":"77070","lat":"29.9556352","lng":"-95.5850333"},{"id":"8686","barId":"657","paid":"8681.32","rev":"129571.94029850746","taxId":"MB196771","name":"HOUSTON'S RESTAURANT          ","address":"5888 WESTHEIMER RD            ","zip":"77057","lat":"29.7386099","lng":"-95.4840136"},{"id":"8716","barId":"659","paid":"515.02","rev":"7686.86567164179","taxId":"MB196869","name":"MENCIUS GOURMET HUNAN RESTAURA","address":"1379 KINGWOOD DR              ","zip":"77339","lat":"30.0495921","lng":"-95.2342423"},{"id":"8746","barId":"661","paid":"2968.36","rev":"44303.880597014926","taxId":"MB197143","name":"MONTROSE MINING CO            ","address":"805 PACIFIC ST                ","zip":"77006","lat":"29.746518","lng":"-95.3903464"},{"id":"8777","barId":"663","paid":"654.45","rev":"9767.910447761195","taxId":"MB197282","name":"THE ORIGINAL EL GALLO MEX REST","address":"2116 GESSNER DR               ","zip":"77080","lat":"29.8119536","lng":"-95.5448027"},{"id":"8822","barId":"666","paid":"1990.16","rev":"29703.880597014926","taxId":"MB197440","name":"THE OLIVE GARDEN #74          ","address":"1010 OLD SPANISH TRL          ","zip":"77054","lat":"29.6916472","lng":"-95.4149651"},{"id":"8837","barId":"667","paid":"416.07","rev":"6209.999999999999","taxId":"MB197467","name":"CAFE CHINO                    ","address":"3285 SOUTHWEST FWY            ","zip":"77027","lat":"29.7292489","lng":"-95.4313345"},{"id":"8897","barId":"671","paid":"3826.3","rev":"57108.9552238806","taxId":"MB198066","name":"LIZZARD'S PUB                 ","address":"2715 SACKETT ST               ","zip":"77098","lat":"29.7410321","lng":"-95.4225253"},{"id":"8941","barId":"674","paid":"10174.88","rev":"151863.8805970149","taxId":"MB198461","name":"HOUSTON'S RESTAURANT          ","address":"4848 KIRBY DR                 ","zip":"77098","lat":"29.7289319","lng":"-95.419048"},{"id":"8956","barId":"675","paid":"4601.09","rev":"68672.98507462686","taxId":"MB198523","name":"PREGO                         ","address":"2520 AMHERST ST               ","zip":"77005","lat":"29.7158751","lng":"-95.4169439"},{"id":"9017","barId":"681","paid":"87.9","rev":"1311.9402985074628","taxId":"MB198727","name":"CABANA BEVERAGES, INC.        ","address":"8930 W SAM HOUSTON PKWY N     ","zip":"77040","lat":"29.9018298","lng":"-95.5498509"},{"id":"9107","barId":"687","paid":"11364.13","rev":"169613.8805970149","taxId":"MB199517","name":"JR'S BAR \u0026 GRILL / HOUSTON    ","address":"804-8 PACIFIC ST              ","zip":"77006","lat":"29.746934","lng":"-95.38996"},{"id":"9122","barId":"688","paid":"1764.44","rev":"26334.925373134327","taxId":"MB199564","name":"LA BARE                       ","address":"6234 RICHMOND AVE STE 200     ","zip":"77057","lat":"29.732392","lng":"-95.492817"},{"id":"9247","barId":"697","paid":"272.48","rev":"4066.865671641791","taxId":"MB200507","name":"CABANA BEVERAGES, INC.        ","address":"8905 RICHMOND AVE             ","zip":"77063","lat":"29.7286889","lng":"-95.5210752"},{"id":"9262","barId":"698","paid":"253.66","rev":"3785.970149253731","taxId":"MB200509","name":"TACO CABANA BEVERAGES INC     ","address":"3905 KIRBY DR                 ","zip":"77098","lat":"29.7318385","lng":"-95.4182577"},{"id":"9310","barId":"702","paid":"377.88","rev":"5640","taxId":"MB200870","name":"CABANA BEVERAGES, INC.        ","address":"11079 WESTHEIMER RD           ","zip":"77042","lat":"29.7362558","lng":"-95.5700446"},{"id":"9355","barId":"705","paid":"4022.14","rev":"60031.940298507456","taxId":"MB201322","name":"MAMACITAS MEXICAN RESTAURANT \u0026","address":"19831 NORTHWEST FWY           ","zip":"77065","lat":"29.914606","lng":"-95.61705"},{"id":"9432","barId":"711","paid":"10985.65","rev":"163964.92537313432","taxId":"MB202066","name":"CARRABBA'S RESTAURANT         ","address":"1399 S VOSS                   ","zip":"77057","lat":"29.7538351","lng":"-95.5005311"},{"id":"9447","barId":"712","paid":"4799.61","rev":"71635.97014925373","taxId":"MB202068","name":"SOUTH BEACH                   ","address":"810 PACIFIC ST                ","zip":"77006","lat":"29.747055","lng":"-95.390578"},{"id":"9506","barId":"717","paid":"172.25","rev":"2570.8955223880594","taxId":"MB202740","name":"OVATIONS                      ","address":"2536B TIMES BLVD              ","zip":"77005","lat":"29.7166757","lng":"-95.4172082"},{"id":"9577","barId":"722","paid":"778","rev":"11611.940298507461","taxId":"MB203640","name":"FUGATE CLUB INC               ","address":"10055 FUQUA ST                ","zip":"77089","lat":"29.611954","lng":"-95.2349482"},{"id":"9608","barId":"725","paid":"0","rev":"0","taxId":"MB203814","name":"CHILI'S GRILL AND BAR         ","address":"10101 S POST OAK RD           ","zip":"77096","lat":"29.6731136","lng":"-95.4601331"},{"id":"9653","barId":"728","paid":"4433.79","rev":"66175.97014925373","taxId":"MB204275","name":"MOLINA'S MEXICAN RESTAURANT   ","address":"7901 WESTHEIMER RD            ","zip":"77063","lat":"29.7367421","lng":"-95.5066121"},{"id":"9668","barId":"729","paid":"2948","rev":"44000","taxId":"MB204332","name":"WARREN'S INN                  ","address":"307 TRAVIS ST                 ","zip":"77002","lat":"29.7623772","lng":"-95.3616572"},{"id":"9817","barId":"740","paid":"909.05","rev":"13567.910447761193","taxId":"MB204978","name":"BELLA BEVERAGE CORPORATION    ","address":"6633 TRAVIS                   ","zip":"77030","lat":"29.709903","lng":"-95.403276"},{"id":"9847","barId":"742","paid":"4189.17","rev":"62524.92537313433","taxId":"MB204987","name":"RAINBOW LODGE RESTAURANT      ","address":"1706 W 21ST ST                ","zip":"77008","lat":"29.8047601","lng":"-95.4293322"},{"id":"9877","barId":"744","paid":"0","rev":"0","taxId":"MB205229","name":"RIVERSIDE TERRACE CAFE        ","address":"2515 RIVERSIDE DR             ","zip":"77004","lat":"29.716343","lng":"-95.375876"},{"id":"9922","barId":"747","paid":"3442.72","rev":"51383.88059701492","taxId":"MB205374","name":"JUMP'S BAR \u0026 GRILL            ","address":"13180 WESTPARK DR STE 301     ","zip":"77082","lat":"29.7216404","lng":"-95.6186768"},{"id":"9937","barId":"748","paid":"423.84","rev":"6325.970149253731","taxId":"MB205436","name":"TACO CABANA                   ","address":"8101 S MAIN ST                ","zip":"77025","lat":"29.6925013","lng":"-95.4153941"},{"id":"10179","barId":"765","paid":"408.96","rev":"6103.880597014925","taxId":"MB206907","name":"SKEETER'S                     ","address":"5529 WESLAYAN ST              ","zip":"77005","lat":"29.7221068","lng":"-95.4409264"},{"id":"10390","barId":"779","paid":"2817.95","rev":"42058.95522388059","taxId":"MB208202","name":"EL PALENQUE MEXICAN RESTAURANT","address":"21161 TOMBALL PKWY            ","zip":"77070","lat":"29.9986704","lng":"-95.581486"},{"id":"10405","barId":"780","paid":"2720.33","rev":"40601.940298507456","taxId":"MB208284","name":"THE OLIVE GARDEN #1166        ","address":"7525 CYPRESS CREEK PKWY       ","zip":"77070","lat":"29.9642843","lng":"-95.5422263"},{"id":"10450","barId":"783","paid":"1355.54","rev":"20231.94029850746","taxId":"MB208952","name":"VICTOR'S CASA GARCIA MEXICAN C","address":"1939 N FRY RD                 ","zip":"77449","lat":"29.7942245","lng":"-95.7195779"},{"id":"10465","barId":"784","paid":"877.63","rev":"13098.955223880595","taxId":"MB209288","name":"MICHELANGELO'S RESTAURANT     ","address":"307 WESTHEIMER RD             ","zip":"77006","lat":"29.7443689","lng":"-95.384966"},{"id":"10531","barId":"789","paid":"2845.35","rev":"42467.91044776119","taxId":"MB209846","name":"MOLLY MALONE'S PUB            ","address":"7824 LOUETTA RD               ","zip":"77379","lat":"30.0164231","lng":"-95.5321437"},{"id":"10665","barId":"798","paid":"114.9","rev":"1714.9253731343283","taxId":"MB210748","name":"R WES INC                     ","address":"7511 CYPRESS CREEK PKWY       ","zip":"77070","lat":"29.9644013","lng":"-95.5419765"},{"id":"10681","barId":"799","paid":"1803.1","rev":"26911.94029850746","taxId":"MB210778","name":"THE GOOD FORTUNE CLUB         ","address":"25170 INTERSTATE 45 STE 6     ","zip":"77386","lat":"30.116014","lng":"-95.4394601"},{"id":"10888","barId":"817","paid":"2243.29","rev":"33481.94029850746","taxId":"MB212126","name":"EL PRINCIPE AZUL              ","address":"6469 HILLCROFT ST             ","zip":"77081","lat":"29.7114687","lng":"-95.4934306"},{"id":"10903","barId":"818","paid":"858.8","rev":"12817.910447761193","taxId":"MB212209","name":"ARAMARK SPORTS AND ENTERTAINME","address":"551 N SHEPHERD DR STE 250     ","zip":"77007","lat":"29.7817369","lng":"-95.4097569"},{"id":"11020","barId":"826","paid":"2260.71","rev":"33741.94029850746","taxId":"MB212633","name":"SPOTLIGHT KARAOKE             ","address":"5901 WESTHEIMER RD STE P      ","zip":"77057","lat":"29.7368681","lng":"-95.4850068"},{"id":"11065","barId":"829","paid":"2382.52","rev":"35560","taxId":"MB213218","name":"SHAKESPEARE PUB               ","address":"14129 MEMORIAL DR STE E       ","zip":"77079","lat":"29.7694493","lng":"-95.5926942"},{"id":"11081","barId":"830","paid":"111.28","rev":"1660.8955223880596","taxId":"MB213321","name":"TEXAS SUNSET GRILL            ","address":"4510 FM 1960 RD E             ","zip":"77346","lat":"29.9992389","lng":"-95.205733"},{"id":"11097","barId":"831","paid":"2231.16","rev":"33300.895522388055","taxId":"MB213441","name":"JIMMY G'S CAJUN SEAFOOD RESTAU","address":"307 EAST NORTH BELT           ","zip":"77060","lat":"29.9683035","lng":"-95.3793298"},{"id":"11173","barId":"837","paid":"1725.65","rev":"25755.97014925373","taxId":"MB214290","name":"BARNEY'S BILLIARD SALOON NO 12","address":"10670 FM 1960 RD W            ","zip":"77070","lat":"29.9352947","lng":"-95.5810117"},{"id":"11275","barId":"844","paid":"2053.14","rev":"30643.880597014922","taxId":"MB214611","name":"BILLY RAY'S                   ","address":"16402 WALLISVILLE RD          ","zip":"77049","lat":"29.816654","lng":"-95.140354"},{"id":"11425","barId":"854","paid":"2305.13","rev":"34404.92537313433","taxId":"MB215891","name":"19TH HOLE GRILL \u0026 BAR         ","address":"202 SAWDUST RD STE 118        ","zip":"77380","lat":"30.1261952","lng":"-95.4672962"},{"id":"11499","barId":"859","paid":"5362.61","rev":"80038.95522388059","taxId":"MB216454","name":"CARRINGTON'S                  ","address":"9585 MAIN ST                  ","zip":"77025","lat":"29.6799051","lng":"-95.4243302"},{"id":"11543","barId":"862","paid":"12652.48","rev":"188842.98507462683","taxId":"MB216695","name":"CENTERFOLDS                   ","address":"6166 RICHMOND AVE             ","zip":"77057","lat":"29.7322494","lng":"-95.4895618"},{"id":"11575","barId":"865","paid":"1018.6","rev":"15202.985074626866","taxId":"MB217083","name":"MONTEREY'S TEXMEX CAFE (#562) ","address":"12520 GREENSPOINT DR          ","zip":"77060","lat":"29.9509867","lng":"-95.4110299"},{"id":"11590","barId":"866","paid":"0","rev":"0","taxId":"MB217085","name":"MISSION BURRITO # 806         ","address":"6168 N HWY 6                  ","zip":"77084","lat":"29.86887","lng":"-95.644755"},{"id":"11605","barId":"867","paid":"0","rev":"0","taxId":"MB217123","name":"MONTEREY'S LITTLE MEXICO (#559","address":"10515 NORTHWEST FWY           ","zip":"77092","lat":"29.8122821","lng":"-95.462133"},{"id":"11620","barId":"868","paid":"463.97","rev":"6924.925373134329","taxId":"MB217125","name":"MONTEREY'S LITTLE MEXICO #513 ","address":"1331 CROSSTIMBERS ST          ","zip":"77022","lat":"29.8289871","lng":"-95.3823637"},{"id":"11725","barId":"875","paid":"0","rev":"0","taxId":"MB217815","name":"COHEN HOUSE FACULTY CLUB      ","address":"6100 MAIN ST COHEN HOUSE BLD  ","zip":"77005","lat":"29.7183467","lng":"-95.4306141"},{"id":"11813","barId":"881","paid":"848.89","rev":"12669.999999999998","taxId":"MB218467","name":"ELVIA'S CANTINA               ","address":"2727 FONDREN RD STE 2A        ","zip":"77063","lat":"29.7364872","lng":"-95.5202704"},{"id":"11903","barId":"888","paid":"2412.8","rev":"36011.94029850746","taxId":"MB218965","name":"BARNEY'S BILLIARD SALOON #3   ","address":"1702 WEST LOOP N              ","zip":"77008","lat":"29.8005874","lng":"-95.4482664"},{"id":"11997","barId":"895","paid":"2946.05","rev":"43970.89552238806","taxId":"MB219646","name":"FOXXY'S CABERET               ","address":"11112 S POST OAK RD           ","zip":"77035","lat":"29.6574856","lng":"-95.4644478"},{"id":"12251","barId":"913","paid":"2485.56","rev":"37097.91044776119","taxId":"MB221018","name":"MONUMENT INN RESTAURANT       ","address":"4406 INDEPENDENCE PKWY S      ","zip":"77571","lat":"29.7611583","lng":"-95.0805202"},{"id":"12384","barId":"922","paid":"2886.62","rev":"43083.88059701492","taxId":"MB221227","name":"BIMBO'S BEER \u0026 BAR-B-Q        ","address":"10634 COSSEY RD               ","zip":"77070","lat":"30.010604","lng":"-95.585225"},{"id":"12414","barId":"924","paid":"6198.7","rev":"92517.91044776118","taxId":"MB221474","name":"GRAND PRIZE                   ","address":"1010 BANKS ST                 ","zip":"77006","lat":"29.730376","lng":"-95.391648"},{"id":"12517","barId":"931","paid":"1829.1","rev":"27299.999999999996","taxId":"MB222380","name":"THE OLIVE GARDEN OF TEXAS 1259","address":"12711 GULF FWY                ","zip":"77034","lat":"29.615698","lng":"-95.214253"},{"id":"12548","barId":"934","paid":"3081.26","rev":"45988.9552238806","taxId":"MB222939","name":"LA MEXICANA RESTAURANT        ","address":"1018 FAIRVIEW ST              ","zip":"77006","lat":"29.748361","lng":"-95.391705"},{"id":"12563","barId":"935","paid":"2920.79","rev":"43593.88059701492","taxId":"MB223382","name":"BLACK LABRADOR PUB            ","address":"4100 MONTROSE BLVD            ","zip":"77006","lat":"29.7357453","lng":"-95.3915978"},{"id":"12664","barId":"944","paid":"200.73","rev":"2995.970149253731","taxId":"MB224035","name":"TACO CABANA                   ","address":"7501 BELLAIRE BLVD            ","zip":"77036","lat":"29.7043743","lng":"-95.5148206"},{"id":"12721","barId":"948","paid":"493.72","rev":"7368.955223880597","taxId":"MB224275","name":"MIRAGE CABARET                ","address":"3416 W 34TH ST                ","zip":"77092","lat":"29.8172736","lng":"-95.4462188"},{"id":"12736","barId":"949","paid":"4537.1","rev":"67717.9104477612","taxId":"MB224302","name":"THE HIDEAWAY ON DUNVALE       ","address":"3122 DUNVALE RD               ","zip":"77063","lat":"29.730133","lng":"-95.514334"},{"id":"12810","barId":"955","paid":"404.94","rev":"6043.880597014925","taxId":"MB224713","name":"TEPPAY CORPORATION            ","address":"6516-A-2 WESTHEIMER AVE       ","zip":"77057","lat":"29.7387139","lng":"-95.5000638"},{"id":"12871","barId":"960","paid":"8219.29","rev":"122675.97014925374","taxId":"MB225277","name":"GOLD CUP                      ","address":"12747 NORTHWEST FWY           ","zip":"77092","lat":"29.8401849","lng":"-95.492134"},{"id":"12886","barId":"961","paid":"1750.77","rev":"26130.89552238806","taxId":"MB225374","name":"THE OLIVE GARDEN OF TEXAS 1285","address":"9080 SOUTHWEST FWY            ","zip":"77074","lat":"29.685505","lng":"-95.5335146"},{"id":"12975","barId":"967","paid":"3558.97","rev":"53118.95522388059","taxId":"MB225965","name":"OUTBACK STEAKHOUSE            ","address":"10001 WESTHEIMER RD STE 1010  ","zip":"77042","lat":"29.7362958","lng":"-95.5499819"},{"id":"13019","barId":"970","paid":"2020.72","rev":"30160","taxId":"MB226210","name":"WESTBURY COZY CORNER          ","address":"11530 BURDINE ST STE A        ","zip":"77035","lat":"29.6542029","lng":"-95.4815049"},{"id":"13065","barId":"973","paid":"3708.24","rev":"55346.86567164178","taxId":"MB226335","name":"FAUD'S RESTAURANT             ","address":"6100 WESTHEIMER RD STE 144    ","zip":"77057","lat":"29.7389967","lng":"-95.4905009"},{"id":"13096","barId":"975","paid":"191.88","rev":"2863.880597014925","taxId":"MB226473","name":"SWIFT + COMPANY               ","address":"2137 W ALABAMA ST             ","zip":"77098","lat":"29.7382391","lng":"-95.4124186"},{"id":"13126","barId":"977","paid":"15262.26","rev":"227794.92537313432","taxId":"MB226565","name":"TRULUCK'S STEAK \u0026 STONE CRAB  ","address":"5919 WESTHEIMER               ","zip":"77057","lat":"29.7372826","lng":"-95.4862606"},{"id":"13191","barId":"982","paid":"282.53","rev":"4216.86567164179","taxId":"MB226877","name":"TACO CABANA                   ","address":"9220 GULF FWY                 ","zip":"77017","lat":"29.6541706","lng":"-95.2533291"},{"id":"13236","barId":"985","paid":"377.27","rev":"5630.895522388059","taxId":"MB227036","name":"TACO CABANA                   ","address":"700 NORTH LOOP W              ","zip":"77018","lat":"29.8131931","lng":"-95.4103448"},{"id":"13355","barId":"994","paid":"160.33","rev":"2392.9850746268658","taxId":"MB227303","name":"CABANA BEVERAGES INC          ","address":"21121 STATE HIGHWAY 249       ","zip":"77070","lat":"29.9914563","lng":"-95.5764359"},{"id":"13445","barId":"1000","paid":"407.49","rev":"6081.940298507462","taxId":"MB227375","name":"TACO CABANA #172              ","address":"4903 W BELLFORT ST            ","zip":"77035","lat":"29.6702064","lng":"-95.4625251"},{"id":"13460","barId":"1001","paid":"220.02","rev":"3283.880597014925","taxId":"MB227481","name":"THE HAPPY GO LUCKY CLUB       ","address":"4016 TELEPHONE RD             ","zip":"77087","lat":"29.7052989","lng":"-95.3078463"},{"id":"13667","barId":"1015","paid":"3504.43","rev":"52304.92537313432","taxId":"MB227919","name":"HUNTER'S PUB                  ","address":"10549 S POST OAK              ","zip":"77035","lat":"29.6663157","lng":"-95.4627819"},{"id":"13831","barId":"1026","paid":"1721.83","rev":"25698.955223880595","taxId":"MB228737","name":"IRISH PUB-KENNEALLY'S         ","address":"2111 S SHEPHERD DR            ","zip":"77019","lat":"29.746493","lng":"-95.4103499"},{"id":"13936","barId":"1033","paid":"15816.95","rev":"236073.8805970149","taxId":"MB229222","name":"HUGHES HANGER                 ","address":"2811 WASHINGTON AVE STE 104   ","zip":"77007","lat":"29.7684789","lng":"-95.3879658"},{"id":"13996","barId":"1038","paid":"602.46","rev":"8991.940298507463","taxId":"MB229393","name":"CASA OLE RESTAURANT (#4)      ","address":"1020 FEDERAL RD               ","zip":"77015","lat":"29.7711222","lng":"-95.2151738"},{"id":"14026","barId":"1041","paid":"5800.92","rev":"86580.89552238806","taxId":"MB229900","name":"OMNI HOUSTON WESTSIDE         ","address":"13210 KATY FWY                ","zip":"77079","lat":"29.7859549","lng":"-95.6188395"},{"id":"14209","barId":"1055","paid":"328.43","rev":"4901.940298507462","taxId":"MB230790","name":"CABANA BEVERAGES INC          ","address":"11880 BISSONNET ST            ","zip":"77099","lat":"29.675603","lng":"-95.5870593"},{"id":"14239","barId":"1057","paid":"116.51","rev":"1738.955223880597","taxId":"MB230860","name":"JUANITO'S NIGHT CLUB          ","address":"6762 TELEPHONE RD             ","zip":"77061","lat":"29.6629484","lng":"-95.2892971"},{"id":"14286","barId":"1061","paid":"1428.3","rev":"21317.91044776119","taxId":"MB230948","name":"FAJITA WILLIES CAFE \u0026 CANTINA ","address":"15650 FM 529 RD               ","zip":"77095","lat":"29.8792271","lng":"-95.6441789"},{"id":"14330","barId":"1064","paid":"1642.77","rev":"24518.955223880595","taxId":"MB231330","name":"HEFLEY'S                      ","address":"138 W GRAY ST                 ","zip":"77019","lat":"29.753477","lng":"-95.380294"},{"id":"14742","barId":"1094","paid":"4260.66","rev":"63591.940298507456","taxId":"MB232739","name":"MOLLY'S PUB                   ","address":"902 RAMADA DR                 ","zip":"77062","lat":"29.5564357","lng":"-95.123172"},{"id":"14981","barId":"1112","paid":"197.51","rev":"2947.9104477611936","taxId":"MB233437","name":"CABANA BEVERAGES, INC.        ","address":"167 YALE ST                   ","zip":"77007","lat":"29.7734533","lng":"-95.3990045"},{"id":"15011","barId":"1114","paid":"191.35","rev":"2855.970149253731","taxId":"MB233528","name":"EL IMPERIAL MEXICAN RESTAURANT","address":"818 FEDERAL RD                ","zip":"77015","lat":"29.7756005","lng":"-95.2181667"},{"id":"15026","barId":"1115","paid":"1540.33","rev":"22989.999999999996","taxId":"MB233529","name":"CANARY CLUB                   ","address":"711 FREEPORT ST               ","zip":"77015","lat":"29.783804","lng":"-95.17788"},{"id":"15079","barId":"1119","paid":"1628.3","rev":"24302.985074626864","taxId":"MB233915","name":"CHAYNS                        ","address":"3920 FM 1960 RD W STE 101     ","zip":"77068","lat":"29.99352","lng":"-95.489212"},{"id":"15124","barId":"1122","paid":"3159.72","rev":"47159.99999999999","taxId":"MB234180","name":"BIG JOHN'S ICE HOUSE          ","address":"12640 BRIAR FOREST DR         ","zip":"77077","lat":"29.7544452","lng":"-95.6081022"},{"id":"15187","barId":"1128","paid":"25809.53","rev":"385216.8656716418","taxId":"MB234433","name":"CAMPUS BEVERAGE INC           ","address":"111 N POST OAK LANE           ","zip":"77024","lat":"29.7690712","lng":"-95.4607201"},{"id":"15217","barId":"1130","paid":"1132.97","rev":"16910","taxId":"MB234489","name":"CAPS PIANO BAR                ","address":"2610 BRIAR RIDGE DR           ","zip":"77057","lat":"29.73896","lng":"-95.4916512"},{"id":"15308","barId":"1136","paid":"1419.66","rev":"21188.955223880595","taxId":"MB234903","name":"TEALA'S MEXICAN RESTAURANT    ","address":"3210 W DALLAS ST              ","zip":"77019","lat":"29.7574469","lng":"-95.3999495"},{"id":"15458","barId":"1146","paid":"3175.8","rev":"47400","taxId":"MB235280","name":"BARNEY'S BILLIARD SALOON #5   ","address":"217-A B C F H FM 1960 WEST    ","zip":"77090","lat":"29.9992761","lng":"-95.4803132"},{"id":"15588","barId":"1156","paid":"2899.62","rev":"43277.91044776119","taxId":"MB236601","name":"R \u0026 R SPORTS BAR \u0026 GRILL      ","address":"1840 BARKER CYPRESS RD        ","zip":"77084","lat":"29.795403","lng":"-95.688071"},{"id":"15687","barId":"1163","paid":"2016.63","rev":"30098.955223880595","taxId":"MB236874","name":"BLUTO'S BAR                   ","address":"8979 RICHMOND AVE             ","zip":"77063","lat":"29.728965","lng":"-95.5219537"},{"id":"15743","barId":"1168","paid":"154.83","rev":"2310.89552238806","taxId":"MB237057","name":"CABANA BEVERAGES INC          ","address":"11212 FUQUA ST                ","zip":"77089","lat":"29.6129325","lng":"-95.2194416"},{"id":"15811","barId":"1173","paid":"2806.16","rev":"41882.985074626864","taxId":"MB237647","name":"LA REVOLUCION SPORTS BAR      ","address":"7705 CHANNELSIDE ST           ","zip":"77012","lat":"29.717165","lng":"-95.283046"},{"id":"15892","barId":"1180","paid":"1855.63","rev":"27695.97014925373","taxId":"MB238054","name":"OUTBACK STEAKHOUSE            ","address":"20455 KATY FWY                ","zip":"77450","lat":"29.7842308","lng":"-95.7272158"},{"id":"15982","barId":"1186","paid":"2018.17","rev":"30121.940298507463","taxId":"MB238268","name":"CHILI'S GRILL \u0026 BAR           ","address":"7621 FM 1960 RD W             ","zip":"77070","lat":"29.9639235","lng":"-95.5429829"},{"id":"16162","barId":"1199","paid":"2734.73","rev":"40816.86567164179","taxId":"MB238779","name":"SLICK WILLIE'S FAMILY POOL HAL","address":"1200 WESTHEIMER RD            ","zip":"77006","lat":"29.744851","lng":"-95.39353"},{"id":"16184","barId":"1201","paid":"1050.49","rev":"15678.955223880595","taxId":"MB238795","name":"CLEMENTINE'S EATING PARLOR    ","address":"6448 FM 1960 WEST             ","zip":"77069","lat":"29.9717387","lng":"-95.5277915"},{"id":"16199","barId":"1202","paid":"452.71","rev":"6756.86567164179","taxId":"MB238847","name":"SEOUL GARDEN                  ","address":"9446 LONG POINT RD            ","zip":"77055","lat":"29.7975998","lng":"-95.5251359"},{"id":"16260","barId":"1206","paid":"283.14","rev":"4225.970149253731","taxId":"MB239155","name":"CABANA BEVERAGES, INC.        ","address":"11441 KATY FWY                ","zip":"77079","lat":"29.7837658","lng":"-95.5844164"},{"id":"16380","barId":"1214","paid":"3646.4","rev":"54423.880597014926","taxId":"MB239731","name":"TONY'S TAVERN \u0026 SPORTS BAR    ","address":"12779 JONES RD STE 115        ","zip":"77070","lat":"29.9586658","lng":"-95.5858312"},{"id":"16439","barId":"1218","paid":"3228.32","rev":"48183.880597014926","taxId":"MB239975","name":"CHAMPION GOLF CLUB, INC.      ","address":"13722 CHAMPIONS DR            ","zip":"77069","lat":"29.9804559","lng":"-95.5304584"},{"id":"16477","barId":"1221","paid":"1647.06","rev":"24582.985074626864","taxId":"MB240337","name":"MASSA'S                       ","address":"1160 SMITH ST                 ","zip":"77002","lat":"29.7578776","lng":"-95.3696174"},{"id":"16529","barId":"1225","paid":"327.63","rev":"4890","taxId":"MB240498","name":"CABANA BEVERAGES INC          ","address":"13480 NORTHWEST FWY           ","zip":"77040","lat":"29.851881","lng":"-95.509254"},{"id":"16574","barId":"1228","paid":"8808.42","rev":"131468.9552238806","taxId":"MB241000","name":"PAPPASITO'S CANTINA           ","address":"7050 FM 1960 W                ","zip":"77069","lat":"29.9683815","lng":"-95.5354058"},{"id":"16768","barId":"1241","paid":"4877.6","rev":"72800","taxId":"MB241782","name":"TIME OUT #2                   ","address":"307 EL DORADO BLVD            ","zip":"77598","lat":"29.5570729","lng":"-95.1483319"},{"id":"16812","barId":"1244","paid":"5087.84","rev":"75937.9104477612","taxId":"MB242095","name":"ESCALANTE'S                   ","address":"6582 WOODWAY DR               ","zip":"77057","lat":"29.7549664","lng":"-95.5007061"},{"id":"16949","barId":"1255","paid":"4170.88","rev":"62251.94029850746","taxId":"MB242803","name":"DAMIAN'S CUCINA ITALIANA      ","address":"3011 SMITH ST                 ","zip":"77006","lat":"29.744372","lng":"-95.3797079"},{"id":"17099","barId":"1265","paid":"1222.95","rev":"18252.985074626864","taxId":"MB243572","name":"KOOZIE'S ICE HOUSE            ","address":"7337 ALABONSON RD             ","zip":"77088","lat":"29.8772132","lng":"-95.4834428"},{"id":"17129","barId":"1267","paid":"6879.69","rev":"102681.94029850746","taxId":"MB243605","name":"COLORADO BAR AND GRILL        ","address":"6710 SOUTHWEST FWY            ","zip":"77074","lat":"29.7160055","lng":"-95.5013009"},{"id":"17175","barId":"1270","paid":"2384.99","rev":"35596.86567164178","taxId":"MB243721","name":"THE BIG EASY SOCIAL AND PLEASU","address":"5731 KIRBY DR                 ","zip":"77005","lat":"29.7208094","lng":"-95.4181165"},{"id":"17190","barId":"1271","paid":"1763.77","rev":"26324.925373134327","taxId":"MB243751","name":"BAY OAKS COUNTRY CLUB         ","address":"14545 BAY OAKS BLVD           ","zip":"77059","lat":"29.5933713","lng":"-95.1260478"},{"id":"17235","barId":"1274","paid":"1685.58","rev":"25157.91044776119","taxId":"MB244055","name":"OUTBACK STEAKHOUSE            ","address":"5710 FM 1960 RD W             ","zip":"77069","lat":"29.9792725","lng":"-95.5147948"},{"id":"17250","barId":"1275","paid":"5424.58","rev":"80963.88059701493","taxId":"MB244125","name":"MOLLY'S PUB                   ","address":"24905 INTERSTATE 45           ","zip":"77380","lat":"30.1145736","lng":"-95.4391999"},{"id":"17265","barId":"1276","paid":"13323.55","rev":"198858.95522388056","taxId":"MB244221","name":"MO'S PLACE                    ","address":"21940 KINGSLAND BLVD          ","zip":"77450","lat":"29.775486","lng":"-95.7530485"},{"id":"17369","barId":"1284","paid":"804.6","rev":"12008.955223880597","taxId":"MB244647","name":"EL CHARRO MEXICAN RESTAURANT C","address":"11163 HUFFMEISTER RD          ","zip":"77065","lat":"29.9377879","lng":"-95.6288994"},{"id":"17384","barId":"1285","paid":"1523.71","rev":"22741.940298507463","taxId":"MB244649","name":"OLIVE GARDEN RESTAURANT #1441 ","address":"2750 HIGHWAY 6 S              ","zip":"77082","lat":"29.7302454","lng":"-95.6448706"},{"id":"17414","barId":"1287","paid":"10868.07","rev":"162210","taxId":"MB244714","name":"PAPPADEUX SEAFOOD KITCHEN     ","address":"7110 FM 1960 WEST             ","zip":"77069","lat":"29.967648","lng":"-95.536506"},{"id":"17444","barId":"1289","paid":"129.91","rev":"1938.9552238805968","taxId":"MB244731","name":"CABANA BEVERAGES, INC.        ","address":"2025 FM 1960 RD W             ","zip":"77090","lat":"30.008851","lng":"-95.4596909"},{"id":"17519","barId":"1294","paid":"2767.16","rev":"41300.895522388055","taxId":"MB244858","name":"JB'S PUB                      ","address":"9110 JONES RD                 ","zip":"77065","lat":"29.9066929","lng":"-95.5836769"},{"id":"17624","barId":"1302","paid":"1730.14","rev":"25822.985074626864","taxId":"MB245697","name":"THE CLUB AT FALCON POINT      ","address":"24503 FALCON POINT DR         ","zip":"77494","lat":"29.7701473","lng":"-95.794591"},{"id":"17669","barId":"1305","paid":"307.19","rev":"4584.925373134328","taxId":"MB245763","name":"CABANA BEVERAGES, INC.        ","address":"2535 HIGHWAY 6 S              ","zip":"77082","lat":"29.7337222","lng":"-95.6432023"},{"id":"17684","barId":"1306","paid":"4808.12","rev":"71762.98507462686","taxId":"MB245770","name":"CLICKS BILLIARDS              ","address":"13380 NORTHWEST FWY           ","zip":"77040","lat":"29.8508286","lng":"-95.5063582"},{"id":"18040","barId":"1331","paid":"1403.58","rev":"20948.955223880595","taxId":"MB246947","name":"DON CARLOS MEXICAN RESTAURANT ","address":"8385 BROADWAY ST              ","zip":"77061","lat":"29.670195","lng":"-95.2763257"},{"id":"18178","barId":"1341","paid":"2000.35","rev":"29855.970149253728","taxId":"MB247625","name":"CHILI'S GRILL \u0026 BAR           ","address":"518 FM 1960 RD W              ","zip":"77090","lat":"30.0194377","lng":"-95.4379036"},{"id":"18193","barId":"1342","paid":"5855.86","rev":"87400.89552238805","taxId":"MB247710","name":"FIESTA EN GUADALAJARA         ","address":"3522 IRVINGTON BLVD           ","zip":"77009","lat":"29.793003","lng":"-95.360579"},{"id":"18330","barId":"1352","paid":"2610.45","rev":"38961.940298507456","taxId":"MB248084","name":"THE HOUSTON CLUB              ","address":"910 LOUISIANA ST FL 49        ","zip":"77002","lat":"29.752554","lng":"-95.3704009"},{"id":"18418","barId":"1358","paid":"7355.72","rev":"109786.86567164179","taxId":"MB248254","name":"PENNISON'S SPORTS PUB TOO     ","address":"7610 CHERRY PARK DR STE B     ","zip":"77095","lat":"29.8894552","lng":"-95.6399984"},{"id":"18448","barId":"1360","paid":"0","rev":"0","taxId":"MB248428","name":"LANDRY'S SEAFOOD INN \u0026 OYSTER ","address":"8816 WESTHEIMER RD            ","zip":"77063","lat":"29.738002","lng":"-95.52012"},{"id":"18522","barId":"1366","paid":"23044.38","rev":"343945.9701492537","taxId":"MB248784","name":"TMC BEVERAGES OF HOUSTON, INC.","address":"3303 SAGE RD STE 100          ","zip":"77056","lat":"29.733522","lng":"-95.466103"},{"id":"18537","barId":"1367","paid":"987.31","rev":"14735.97014925373","taxId":"MB248861","name":"THE LEXINGTON GRILL           ","address":"2005 LEXINGTON ST             ","zip":"77098","lat":"29.731448","lng":"-95.409853"},{"id":"18605","barId":"1372","paid":"3874.67","rev":"57830.895522388055","taxId":"MB249208","name":"TIA MARIA'S MEXICAN RESTAURANT","address":"4618 DACOMA ST                ","zip":"77092","lat":"29.8067957","lng":"-95.4577627"},{"id":"18620","barId":"1373","paid":"351.81","rev":"5250.895522388059","taxId":"MB249210","name":"CABANA BEVERAGES, INC.        ","address":"373 S MASON RD                ","zip":"77450","lat":"29.7801582","lng":"-95.7512947"},{"id":"18749","barId":"1383","paid":"363.14","rev":"5419.999999999999","taxId":"MB249589","name":"PESCADOR MARISCOS             ","address":"4221 JURA DR STE B            ","zip":"77084","lat":"29.835792","lng":"-95.654315"},{"id":"18972","barId":"1399","paid":"1052.5","rev":"15708.955223880595","taxId":"MB250293","name":"CLUB SALSERO                  ","address":"9232 RICHMOND AVE             ","zip":"77063","lat":"29.7294424","lng":"-95.5274533"},{"id":"19017","barId":"1402","paid":"1615.37","rev":"24109.999999999996","taxId":"MB250384","name":"FAJITA FLATS                  ","address":"11853 WILCREST DR             ","zip":"77031","lat":"29.6493669","lng":"-95.5657894"},{"id":"19032","barId":"1403","paid":"1412.62","rev":"21083.880597014922","taxId":"MB250411","name":"AMEDEO'S ITALIAN RESTAURANT   ","address":"22704 LOOP 494 STE A          ","zip":"77339","lat":"30.040407","lng":"-95.251225"},{"id":"19116","barId":"1410","paid":"2504.05","rev":"37373.880597014926","taxId":"MB250665","name":"SPARROW BAR + COOKSHOP        ","address":"3701 TRAVIS ST                ","zip":"77002","lat":"29.7386696","lng":"-95.3801995"},{"id":"19131","barId":"1411","paid":"4150.65","rev":"61949.99999999999","taxId":"MB250676","name":"TOMMY'S PATIO CAFE            ","address":"2555 BAY AREA BLVD            ","zip":"77058","lat":"29.5768438","lng":"-95.1077386"},{"id":"19208","barId":"1416","paid":"2160.21","rev":"32241.940298507463","taxId":"MB250960","name":"NIKKIS IRISH PUB              ","address":"10885 KATY FWY                ","zip":"77079","lat":"29.7843466","lng":"-95.5694728"},{"id":"19313","barId":"1423","paid":"267.73","rev":"3995.9701492537315","taxId":"MB251243","name":"CABANA BEVERAGES INC          ","address":"105 LOUETTA XING              ","zip":"77373","lat":"30.0669435","lng":"-95.4334603"},{"id":"19429","barId":"1432","paid":"4544.87","rev":"67833.88059701493","taxId":"MB251489","name":"CARRABBA'S ITALIAN GRILL      ","address":"25665 INTERSTATE 45           ","zip":"77380","lat":"30.1145736","lng":"-95.4391999"},{"id":"19521","barId":"1438","paid":"216.07","rev":"3224.925373134328","taxId":"MB251917","name":"CABANA BEVERAGES, INC.        ","address":"11006 FM 1960 RD W            ","zip":"77065","lat":"29.9331448","lng":"-95.585375"},{"id":"19536","barId":"1439","paid":"5119.53","rev":"76410.89552238805","taxId":"MB251925","name":"HI-10 CABARET                 ","address":"11927 EAST FWY                ","zip":"77029","lat":"29.772598","lng":"-95.2271676"},{"id":"19626","barId":"1445","paid":"136.34","rev":"2034.9253731343283","taxId":"MB252340","name":"GREENSPOINT CLUB              ","address":"16925 NORTHCHASE DR           ","zip":"77060","lat":"29.9476422","lng":"-95.4065961"},{"id":"19890","barId":"1465","paid":"1974.82","rev":"29474.925373134327","taxId":"MB253536","name":"JAX GRILL                     ","address":"1613 SHEPHERD DR              ","zip":"77007","lat":"29.775392","lng":"-95.409946"},{"id":"19904","barId":"1466","paid":"823.29","rev":"12287.910447761193","taxId":"MB253537","name":"SPANISH VILLAGE RESTAURANT    ","address":"4720 ALMEDA RD                ","zip":"77004","lat":"29.727241","lng":"-95.377538"},{"id":"19919","barId":"1467","paid":"6331.9","rev":"94505.97014925371","taxId":"MB253540","name":"METROPOLIS DISCOTHEQUE/EXTRAVA","address":"8925 RICHMOND AVE             ","zip":"77063","lat":"29.7280918","lng":"-95.5211779"},{"id":"19993","barId":"1472","paid":"244.34","rev":"3646.865671641791","taxId":"MB253921","name":"EL PARAISO MEXICAN RESTAURANT ","address":"2320 CROCKER ST               ","zip":"77006","lat":"29.748257","lng":"-95.389892"},{"id":"20067","barId":"1477","paid":"11479.37","rev":"171333.88059701494","taxId":"MB254249","name":"SHERLOCK'S BAKER ST PUB       ","address":"10001 WESTHEIMER RD STE 2840  ","zip":"77042","lat":"29.7362958","lng":"-95.5499819"},{"id":"20341","barId":"1496","paid":"6425.5","rev":"95902.98507462686","taxId":"MB255422","name":"OUISIES TABLE                 ","address":"3939 SAN FELIPE               ","zip":"77027","lat":"29.746213","lng":"-95.4430987"},{"id":"20507","barId":"1509","paid":"6671.19","rev":"99569.99999999999","taxId":"MB256330","name":"PAPPASITO'S CANTINA           ","address":"11831 EAST FWY                ","zip":"77029","lat":"29.7734918","lng":"-95.2294046"},{"id":"20591","barId":"1515","paid":"11943.15","rev":"178255.97014925373","taxId":"MB256488","name":"TREASURES                     ","address":"5647 WESTHEIMER RD            ","zip":"77056","lat":"29.7374208","lng":"-95.4757687"},{"id":"20636","barId":"1518","paid":"3700.74","rev":"55234.92537313432","taxId":"MB256897","name":"BARNEY'S BILLIARD SALOON NO 16","address":"345 SAWDUST RD                ","zip":"77380","lat":"30.1261952","lng":"-95.4672962"},{"id":"20736","barId":"1525","paid":"10450.52","rev":"155977.91044776118","taxId":"MB257240","name":"OSTIONERIA MICHOACAN          ","address":"11402 NORTH FWY               ","zip":"77060","lat":"29.9321962","lng":"-95.4105739"},{"id":"20845","barId":"1533","paid":"267.12","rev":"3986.865671641791","taxId":"MB258006","name":"CABANA BEVERAGES INC          ","address":"12518 STATE HIGHWAY 249       ","zip":"77086","lat":"29.911879","lng":"-95.479348"},{"id":"20920","barId":"1538","paid":"4488.66","rev":"66994.92537313432","taxId":"MB258280","name":"NICK'S PLACE                  ","address":"2713 ROCKYRIDGE DR            ","zip":"77063","lat":"29.736948","lng":"-95.5324413"},{"id":"21039","barId":"1546","paid":"5802.87","rev":"86610","taxId":"MB258588","name":"THE CHEESECAKE FACTORY OF HOUS","address":"5015 WESTHEIMER #2195 #3406   ","zip":"77056","lat":"29.739212","lng":"-95.4635009"},{"id":"21103","barId":"1551","paid":"765.07","rev":"11418.955223880597","taxId":"MB258897","name":"SUNDOWN SALOON                ","address":"4818 DACOMA ST                ","zip":"77092","lat":"29.807166","lng":"-95.4617021"},{"id":"21118","barId":"1552","paid":"355.9","rev":"5311.940298507462","taxId":"MB259040","name":"HOOK LINE \u0026 SINKER            ","address":"5700 HIGHWAY 6 N              ","zip":"77084","lat":"29.8576171","lng":"-95.6440689"},{"id":"21307","barId":"1565","paid":"7102.93","rev":"106013.88059701493","taxId":"MB259995","name":"BENJY'S RESTAURANTS           ","address":"2424 DUNSTAN RD # 125         ","zip":"77005","lat":"29.7195555","lng":"-95.4163497"},{"id":"21337","barId":"1567","paid":"1469.31","rev":"21929.999999999996","taxId":"MB260166","name":"BERRYHILL HOT TAMALES         ","address":"2639 REVERE ST                ","zip":"77098","lat":"29.7421284","lng":"-95.4163957"},{"id":"21352","barId":"1568","paid":"2385.53","rev":"35604.92537313433","taxId":"MB260528","name":"CATBIRDS                      ","address":"1336 WESTHEIMER RD            ","zip":"77006","lat":"29.7436608","lng":"-95.3957524"},{"id":"21384","barId":"1571","paid":"2813.79","rev":"41996.86567164179","taxId":"MB260970","name":"ARAMARK SPORTS \u0026 ENTERTAINMENT","address":"2000 S LOOP W                 ","zip":"77054","lat":"29.7465374","lng":"-95.4578618"},{"id":"21459","barId":"1576","paid":"8817.13","rev":"131598.95522388056","taxId":"MB261351","name":"DAVE \u0026 BUSTER'S               ","address":"6010 RICHMOND AVE             ","zip":"77057","lat":"29.732219","lng":"-95.4853042"},{"id":"21533","barId":"1581","paid":"6710.51","rev":"100156.86567164179","taxId":"MB261924","name":"LOS CUCOS MEXICAN CAFE #2     ","address":"22390 TOMBALL PKWY            ","zip":"77070","lat":"30.0080583","lng":"-95.5870787"},{"id":"21563","barId":"1583","paid":"2362.21","rev":"35256.86567164179","taxId":"MB261951","name":"NICK'S SPORTS BAR \u0026 GRILL     ","address":"1448 WILCREST DR              ","zip":"77042","lat":"29.7492528","lng":"-95.5726573"},{"id":"21578","barId":"1584","paid":"5801.79","rev":"86593.88059701493","taxId":"MB262135","name":"MORTON'S OF CHICAGO/HOUSTON   ","address":"5000 WESTHEIMER RD STE 190    ","zip":"77056","lat":"29.7414868","lng":"-95.4629597"},{"id":"21638","barId":"1588","paid":"977.99","rev":"14596.86567164179","taxId":"MB262390","name":"CLAY'S RESTAURANT \u0026 HALL      ","address":"17717 CLAY RD STE A           ","zip":"77084","lat":"29.8307907","lng":"-95.669821"},{"id":"21667","barId":"1590","paid":"858.13","rev":"12807.910447761193","taxId":"MB262940","name":"RIVA'S ITALIAN RESTAURANT     ","address":"1117 MISSOURI ST              ","zip":"77006","lat":"29.7460624","lng":"-95.3925299"},{"id":"21949","barId":"1609","paid":"4939.7","rev":"73726.86567164179","taxId":"MB264490","name":"DEL PUEBLO MEXICAN RESTAURANT ","address":"13235 JONES RD                ","zip":"77070","lat":"29.9668051","lng":"-95.5853667"},{"id":"22024","barId":"1614","paid":"647.55","rev":"9664.925373134327","taxId":"MB264886","name":"NINFA'S MEXICAN CAFE          ","address":"5015 WESTHEIMER RD STE 1280   ","zip":"77056","lat":"29.739545","lng":"-95.462716"},{"id":"22130","barId":"1621","paid":"1666.35","rev":"24870.89552238806","taxId":"MB265347","name":"SPANKY'S                      ","address":"7210 SOUTH LOOP E             ","zip":"77087","lat":"29.6948864","lng":"-95.2987726"},{"id":"22142","barId":"1622","paid":"4611.14","rev":"68822.98507462686","taxId":"MB265529","name":"CARRABBBA'S ITALIAN GRILL     ","address":"6501 S FRY RD STE 600         ","zip":"77494","lat":"29.7128908","lng":"-95.769606"},{"id":"22324","barId":"1637","paid":"1666.08","rev":"24866.86567164179","taxId":"MB266935","name":"THE HOP                       ","address":"2331 FM 1960 RD W             ","zip":"77068","lat":"30.0062235","lng":"-95.4651587"},{"id":"22354","barId":"1639","paid":"5004.09","rev":"74687.9104477612","taxId":"MB267335","name":"ARCODORO                      ","address":"5000 WESTHEIMER RD STE 120    ","zip":"77056","lat":"29.7414868","lng":"-95.4629597"},{"id":"22429","barId":"1644","paid":"14181.15","rev":"211658.9552238806","taxId":"MB267881","name":"SC BEVERAGE COMPANY           ","address":"4 RIVERWAY                    ","zip":"77056","lat":"29.7612714","lng":"-95.4590761"},{"id":"22459","barId":"1647","paid":"1376.98","rev":"20551.940298507463","taxId":"MB267959","name":"PARROT PUB                    ","address":"5010A-B LOUETTA RD            ","zip":"77379","lat":"30.0393365","lng":"-95.4915838"},{"id":"22500","barId":"1650","paid":"1124.26","rev":"16780","taxId":"MB268137","name":"WILLIE'S GRILL \u0026 ICEHOUSE     ","address":"4561 FM 1960 RD W             ","zip":"77069","lat":"29.986273","lng":"-95.5002726"},{"id":"22515","barId":"1651","paid":"3734.64","rev":"55740.895522388055","taxId":"MB268230","name":"R \u0026 R SPORTS BAR \u0026 GRILL II   ","address":"3338 FM 528 RD                ","zip":"77546","lat":"29.5237017","lng":"-95.1488753"},{"id":"22713","barId":"1666","paid":"820.41","rev":"12244.925373134327","taxId":"MB400907","name":"CHARLIE'S HOUSE               ","address":"3320 BROADWAY ST              ","zip":"77017","lat":"29.692678","lng":"-95.278137"},{"id":"22881","barId":"1678","paid":"1869.3","rev":"27899.999999999996","taxId":"MB401564","name":"SHOWDOWNS DANCE HALL \u0026 SALOON ","address":"12712 WOODFOREST BLVD         ","zip":"77015","lat":"29.7911353","lng":"-95.1994727"},{"id":"22938","barId":"1682","paid":"902.35","rev":"13467.910447761193","taxId":"MB401886","name":"CARINO'S ITALIAN              ","address":"21875 KATY FWY                ","zip":"77450","lat":"29.7827299","lng":"-95.7513535"},{"id":"22983","barId":"1685","paid":"1533.56","rev":"22888.955223880595","taxId":"MB401967","name":"NINFA'S MEXICAN RESTAURANT    ","address":"14737 MEMORIAL DR             ","zip":"77079","lat":"29.7700001","lng":"-95.6100808"},{"id":"23051","barId":"1690","paid":"178.42","rev":"2662.9850746268653","taxId":"MB402681","name":"BLUE NILE ETHIOPIAN RESTAURANT","address":"9400 RICHMOND AVE             ","zip":"77063","lat":"29.7295857","lng":"-95.5304751"},{"id":"23066","barId":"1691","paid":"541.89","rev":"8087.910447761194","taxId":"MB402925","name":"HARVEST ORGANIC GRILLE        ","address":"11681 WESTHEIMER RD           ","zip":"77077","lat":"29.7360466","lng":"-95.5823977"},{"id":"23392","barId":"1715","paid":"3068.26","rev":"45794.92537313433","taxId":"MB405168","name":"GRAPPINO DE NINO              ","address":"1011 LA RUE SUITE C           ","zip":"77019","lat":"29.7569577","lng":"-95.395572"},{"id":"23422","barId":"1717","paid":"4263.94","rev":"63640.89552238805","taxId":"MB405795","name":"CARRABBA'S ITALIAN GRILL      ","address":"5440 FM 1960 RD W             ","zip":"77069","lat":"29.9725223","lng":"-95.5263707"},{"id":"23493","barId":"1725","paid":"574.32","rev":"8571.940298507463","taxId":"MB406514","name":"DOWNING STREET LTD            ","address":"2549 KIRBY DR                 ","zip":"77019","lat":"29.7432891","lng":"-95.4187691"},{"id":"23508","barId":"1726","paid":"1559.76","rev":"23280","taxId":"MB406618","name":"TEQUILA LOPEZ MEXICAN RESTAURA","address":"8145 HIGHWAY 6 S STE 144      ","zip":"77083","lat":"29.6912123","lng":"-95.6429218"},{"id":"23764","barId":"1749","paid":"4295.43","rev":"64110.89552238806","taxId":"MB408093","name":"CARRABBA'S ITALIAN GRILL      ","address":"11339 KATY FWY                ","zip":"77079","lat":"29.7836825","lng":"-95.5835298"},{"id":"23824","barId":"1753","paid":"671.2","rev":"10017.910447761195","taxId":"MB408481","name":"TECATE MEXICAN RESTAURANT     ","address":"2615 ELLA BLVD                ","zip":"77008","lat":"29.8102302","lng":"-95.4295915"},{"id":"23884","barId":"1757","paid":"8075.84","rev":"120534.92537313432","taxId":"MB408838","name":"WILD WEST - HOUSTON           ","address":"6101 RICHMOND AVE             ","zip":"77057","lat":"29.7311989","lng":"-95.4875002"},{"id":"23944","barId":"1761","paid":"1884.71","rev":"28130","taxId":"MB409207","name":"ZIMM'S                        ","address":"4321 MONTROSE BLVD            ","zip":"77006","lat":"29.7334906","lng":"-95.3908619"},{"id":"24380","barId":"1794","paid":"5569.84","rev":"83131.94029850746","taxId":"MB413526","name":"RUDYARD'S BRITISH PUB         ","address":"2010 WAUGH DR                 ","zip":"77006","lat":"29.7499962","lng":"-95.3965483"},{"id":"24395","barId":"1796","paid":"719.64","rev":"10740.895522388058","taxId":"MB413702","name":"DUA                           ","address":"1201 WESTHEIMER RD STE B      ","zip":"77006","lat":"29.7443789","lng":"-95.3933474"},{"id":"24470","barId":"1802","paid":"2385.66","rev":"35606.86567164179","taxId":"MB414214","name":"WILLIE'S GRILL \u0026 ICEHOUSE     ","address":"7092 HIGHWAY 6 N              ","zip":"77095","lat":"29.882797","lng":"-95.64446"},{"id":"24676","barId":"1818","paid":"1348.57","rev":"20127.91044776119","taxId":"MB415602","name":"THE CLUB AT DEERWOOD          ","address":"1717 FOREST GARDEN DR         ","zip":"77345","lat":"30.0424176","lng":"-95.1676438"},{"id":"24777","barId":"1827","paid":"1530.88","rev":"22848.9552238806","taxId":"MB416086","name":"LA HACIENDA ESCONDIDA FAMILY M","address":"1431 W 26TH ST                ","zip":"77008","lat":"29.8102323","lng":"-95.425623"},{"id":"24882","barId":"1834","paid":"8222.17","rev":"122718.95522388059","taxId":"MB416630","name":"MARK'S                        ","address":"1658 WESTHEIMER RD            ","zip":"77006","lat":"29.7430911","lng":"-95.4016023"},{"id":"24954","barId":"1839","paid":"2455.48","rev":"36648.95522388059","taxId":"MB417651","name":"THE MELTING POT RESTAURANT    ","address":"6100 WESTHEIMER RD STE 146    ","zip":"77057","lat":"29.7389967","lng":"-95.4905009"},{"id":"25148","barId":"1853","paid":"2516.98","rev":"37566.86567164179","taxId":"MB419523","name":"GRILLE 5115                   ","address":"5115 WESTHEIMER RD            ","zip":"77056","lat":"29.7405687","lng":"-95.4645585"},{"id":"25193","barId":"1856","paid":"4064.48","rev":"60663.88059701492","taxId":"MB419816","name":"EMILLIANOS SPORTS BAR         ","address":"7710 IH 10 E                  ","zip":"77020","lat":"29.736416","lng":"-95.28557"},{"id":"25280","barId":"1862","paid":"4259.79","rev":"63578.95522388059","taxId":"MB420260","name":"THE DAVENPORT                 ","address":"2115 RICHMOND AVE             ","zip":"77098","lat":"29.73403","lng":"-95.4112961"},{"id":"25349","barId":"1867","paid":"2450.32","rev":"36571.94029850746","taxId":"MB421171","name":"AMAZONIA  DISCOTHEQUE         ","address":"11449 NORTH FWY               ","zip":"77060","lat":"29.9326077","lng":"-95.4120631"},{"id":"25364","barId":"1868","paid":"2576.15","rev":"38450","taxId":"MB421473","name":"TGI FRIDAYS #276              ","address":"7728 CYPRESS CREEK PKWY       ","zip":"77070","lat":"29.9626408","lng":"-95.5453133"},{"id":"25379","barId":"1869","paid":"236.17","rev":"3524.925373134328","taxId":"MB421795","name":"CAFE RED ONION INC            ","address":"12440 NORTHWEST FWY           ","zip":"77092","lat":"29.8375804","lng":"-95.4870831"},{"id":"25414","barId":"1872","paid":"586.51","rev":"8753.880597014924","taxId":"MB422114","name":"ARAMARK SPORTS/QUALITY CONCESS","address":"615 LOUISIANA ST              ","zip":"77002","lat":"29.761114","lng":"-95.3651741"},{"id":"25429","barId":"1873","paid":"3930.68","rev":"58666.86567164178","taxId":"MB422120","name":"ARAMARK SPORTS AND ENTERTAINME","address":"1001 AVENIDA DE LAS AMERICAS  ","zip":"77010","lat":"29.7511598","lng":"-95.3578477"},{"id":"25444","barId":"1874","paid":"3061.16","rev":"45688.95522388059","taxId":"MB422124","name":"ARAMARK SPORTS AND ENTERTAINME","address":"501 TEXAS ST                  ","zip":"77002","lat":"29.763552","lng":"-95.36567"},{"id":"25545","barId":"1881","paid":"2323.69","rev":"34681.94029850746","taxId":"MB422649","name":"OUTBACK STEAKHOUSE            ","address":"8731 WEST LOOP S              ","zip":"77096","lat":"29.6866036","lng":"-95.4555531"},{"id":"25740","barId":"1894","paid":"873.68","rev":"13039.999999999998","taxId":"MB423866","name":"REMINGTON'S BAR \u0026 GRILLE      ","address":"12801 NORTHWEST FWY           ","zip":"77040","lat":"29.8422923","lng":"-95.4959206"},{"id":"25905","barId":"1910","paid":"2241.68","rev":"33457.91044776119","taxId":"MB424476","name":"BERRYHILL HOT TAMALES         ","address":"1717 POST OAK BLVD STE C      ","zip":"77056","lat":"29.7492628","lng":"-95.4597598"},{"id":"25950","barId":"1913","paid":"4746.01","rev":"70835.97014925373","taxId":"MB424612","name":"SALC, INC.                    ","address":"2001 POST OAK BLVD            ","zip":"77056","lat":"29.745883","lng":"-95.459844"},{"id":"25965","barId":"1914","paid":"4813.48","rev":"71842.98507462685","taxId":"MB424616","name":"SALC INC                      ","address":"400 DALLAS ST                 ","zip":"77002","lat":"29.757956","lng":"-95.37118"},{"id":"26094","barId":"1925","paid":"4834.18","rev":"72151.94029850746","taxId":"MB425798","name":"ESCALANTE'S MEXICAN RESTAURANT","address":"590 MEYERLAND PLAZA MALL      ","zip":"77096","lat":"29.6699914","lng":"-95.4830243"},{"id":"26124","barId":"1927","paid":"732.31","rev":"10929.999999999998","taxId":"MB426184","name":"FORNOS OF ITALY               ","address":"10001 WESTHEIMER RD STE 1202  ","zip":"77042","lat":"29.7362958","lng":"-95.5499819"},{"id":"26139","barId":"1928","paid":"4030.11","rev":"60150.895522388055","taxId":"MB426358","name":"CLAYTON'S RESTAURANT \u0026 CLUB   ","address":"198 N SAM HOUSTON PKWY E      ","zip":"77060","lat":"29.9398369","lng":"-95.4079324"},{"id":"26168","barId":"1930","paid":"2480.67","rev":"37024.92537313433","taxId":"MB426457","name":"LITTLE PAPPAS SEAFOOD KITCHEN ","address":"3001 S SHEPHERD DR            ","zip":"77098","lat":"29.739077","lng":"-95.410317"},{"id":"26228","barId":"1934","paid":"6607.07","rev":"98612.98507462685","taxId":"MB426610","name":"KINGWOOD COUNTRY CLUB         ","address":"1700 LAKE KINGWOOD TRL        ","zip":"77339","lat":"30.0400598","lng":"-95.1965988"},{"id":"26258","barId":"1936","paid":"5983.9","rev":"89311.94029850746","taxId":"MB426942","name":"CADILLAC BAR                  ","address":"1802 SHEPHERD DR              ","zip":"77007","lat":"29.776523","lng":"-95.4090204"},{"id":"26273","barId":"1937","paid":"0","rev":"0","taxId":"MB427014","name":"CRAPITTO'S                    ","address":"2400 MIDLANE ST               ","zip":"77027","lat":"29.743281","lng":"-95.4505148"},{"id":"26289","barId":"1938","paid":"457.34","rev":"6825.970149253731","taxId":"MB427025","name":"SPANISH FLOWERS               ","address":"4701 N MAIN ST                ","zip":"77009","lat":"29.7970336","lng":"-95.3819464"},{"id":"26303","barId":"1939","paid":"9118.96","rev":"136103.8805970149","taxId":"MB427268","name":"221 B BAKER ST PUB \u0026 GRILL    ","address":"5510 MORNINGSIDE DR STE 100   ","zip":"77005","lat":"29.7161658","lng":"-95.4153375"},{"id":"26408","barId":"1947","paid":"2470.69","rev":"36875.97014925373","taxId":"MB428590","name":"OUTBACK STEAKHOUSE            ","address":"12130 DICKINSON RD            ","zip":"77089","lat":"29.6043024","lng":"-95.2101768"},{"id":"26500","barId":"1953","paid":"1178.46","rev":"17588.955223880595","taxId":"MB429012","name":"TILA'S RESTAURANTE \u0026 BAR, LTD.","address":"1111 S SHEPHERD DR            ","zip":"77019","lat":"29.7556801","lng":"-95.4085339"},{"id":"26515","barId":"1954","paid":"103.58","rev":"1545.9701492537313","taxId":"MB429036","name":"MOGUL INDIAN RESTAURANT       ","address":"2416 BAY AREA BLVD            ","zip":"77058","lat":"29.5737473","lng":"-95.1074199"},{"id":"26590","barId":"1959","paid":"2152.97","rev":"32133.88059701492","taxId":"MB429523","name":"LAS VENTANAS CANTINA          ","address":"14555 GRISBY RD               ","zip":"77079","lat":"29.782289","lng":"-95.642581"},{"id":"26635","barId":"1962","paid":"11808.21","rev":"176241.94029850743","taxId":"MB429735","name":"EL TIEMPO CANTINA             ","address":"3130 RICHMOND AVE             ","zip":"77098","lat":"29.734319","lng":"-95.42559"},{"id":"26680","barId":"1965","paid":"2222.05","rev":"33164.92537313433","taxId":"MB430244","name":"CLUB RIDDIMS                  ","address":"8220 W BELLFORT ST            ","zip":"77071","lat":"29.6556877","lng":"-95.5227478"},{"id":"26742","barId":"1969","paid":"2608.31","rev":"38930","taxId":"MB430601","name":"SALTGRASS STEAKHOUSE          ","address":"11900 EAST FWY                ","zip":"77029","lat":"29.770266","lng":"-95.226688"},{"id":"26845","barId":"1978","paid":"5935.99","rev":"88596.86567164178","taxId":"MB431089","name":"SULLIVANS STEAKHOUSE          ","address":"4608 WESTHEIMER RD            ","zip":"77027","lat":"29.741577","lng":"-95.455224"},{"id":"26868","barId":"1981","paid":"4593.78","rev":"68563.88059701491","taxId":"MB431374","name":"CHACHO'S MEXICAN GRILL        ","address":"6006 WESTHEIMER RD            ","zip":"77057","lat":"29.7381415","lng":"-95.4877002"},{"id":"26918","barId":"1985","paid":"24332.85","rev":"363176.8656716418","taxId":"MB431780","name":"THE REMINGTON GRILL           ","address":"1919 BRIAR OAKS LN            ","zip":"77027","lat":"29.747435","lng":"-95.450396"},{"id":"26932","barId":"1986","paid":"1214.17","rev":"18121.940298507463","taxId":"MB431785","name":"DON CARLOS RESTAURANT         ","address":"416 76TH ST                   ","zip":"77012","lat":"29.734182","lng":"-95.289014"},{"id":"26963","barId":"1988","paid":"1918.07","rev":"28627.91044776119","taxId":"MB431861","name":"MICHAEL'S OUTPOST             ","address":"1419 RICHMOND AVE             ","zip":"77006","lat":"29.7343567","lng":"-95.3982405"},{"id":"27008","barId":"1992","paid":"561.19","rev":"8375.970149253732","taxId":"MB432064","name":"TOKYOHANA GRILL AND SUSHI BAR ","address":"3239 SOUTHWEST FWY            ","zip":"77027","lat":"29.7287422","lng":"-95.4304521"},{"id":"27023","barId":"1993","paid":"6999.95","rev":"104476.86567164178","taxId":"MB432211","name":"WILLIE G'S                    ","address":"1605 POST OAK BLVD            ","zip":"77056","lat":"29.751574","lng":"-95.4602671"},{"id":"27067","barId":"1996","paid":"204.01","rev":"3044.925373134328","taxId":"MB432417","name":"MANUELS MEXICAN RESTAURANT \u0026 T","address":"5856 FM 1960 RD E             ","zip":"77346","lat":"30.000172","lng":"-95.1848911"},{"id":"27127","barId":"2000","paid":"291.45","rev":"4350","taxId":"MB432881","name":"EVA'S MEXICAN RESTAURANT      ","address":"16300 KUYKENDAHL RD STE 300   ","zip":"77068","lat":"30.013682","lng":"-95.468007"},{"id":"27203","barId":"2006","paid":"553.15","rev":"8255.97014925373","taxId":"MB433313","name":"MARKET SQUARE BAR \u0026 GRILL     ","address":"311 TRAVIS ST                 ","zip":"77002","lat":"29.7622444","lng":"-95.3617143"},{"id":"27292","barId":"2015","paid":"10158.4","rev":"151617.91044776118","taxId":"MB433912","name":"BRAZOS CONCESSIONS CO.        ","address":"2800 N TERMINAL RD            ","zip":"77032","lat":"29.9867028","lng":"-95.3479921"},{"id":"27307","barId":"2016","paid":"14342.22","rev":"214062.98507462683","taxId":"MB433918","name":"BRAZOS CONCESSIONS CO HOUSTON ","address":"2800 N TERMINAL RD            ","zip":"77032","lat":"29.9867028","lng":"-95.3479921"},{"id":"27322","barId":"2017","paid":"22572.43","rev":"336901.94029850746","taxId":"MB433927","name":"BRAZOS CONCESSIONS CO HOUSTON ","address":"2800 N TERMINAL RD            ","zip":"77032","lat":"29.9867028","lng":"-95.3479921"},{"id":"27337","barId":"2018","paid":"7866.26","rev":"117406.86567164179","taxId":"MB433936","name":"BRAZOS CONCESSIONS CO HOUSTON ","address":"GEO BUSH INT AIRPORT TERMINA  ","zip":"77032","lat":"29.9902199","lng":"-95.3367827"},{"id":"27352","barId":"2019","paid":"6135.19","rev":"91569.99999999999","taxId":"MB433942","name":"BRAZOS CONCESSIONS CO HOUSTON ","address":"GEO BUSH INT AIRPORT TERMINA  ","zip":"77032","lat":"29.9902199","lng":"-95.3367827"},{"id":"27646","barId":"2041","paid":"3550.59","rev":"52993.880597014926","taxId":"MB436022","name":"HOSPITALITY INTERNATIONAL INC ","address":"6580 FANNIN ST                ","zip":"77030","lat":"29.7100958","lng":"-95.4010057"},{"id":"28078","barId":"2070","paid":"7401.49","rev":"110469.99999999999","taxId":"MB439217","name":"THE VOLCANO                   ","address":"2349 BISSONNET ST             ","zip":"77005","lat":"29.7252268","lng":"-95.4147551"},{"id":"28153","barId":"2075","paid":"316.5","rev":"4723.880597014925","taxId":"MB440008","name":"VENETO ITALIAN GRILL          ","address":"8500 HIGHWAY 6 N STE A        ","zip":"77095","lat":"29.9035584","lng":"-95.6325996"},{"id":"28178","barId":"2078","paid":"1894.89","rev":"28281.940298507463","taxId":"MB440368","name":"HOT DOG SHOP                  ","address":"6405 BRITTMOORE RD STE 9-16   ","zip":"77041","lat":"29.8622231","lng":"-95.5697627"},{"id":"28238","barId":"2083","paid":"1330.01","rev":"19850.89552238806","taxId":"MB440731","name":"STICKS BILLIARDS AND BAR      ","address":"9890 SOUTHWEST FWY            ","zip":"77074","lat":"29.6720682","lng":"-95.5466502"},{"id":"28299","barId":"2087","paid":"7068.36","rev":"105497.91044776118","taxId":"MB440887","name":"HOSPITALITY INTERNATIONAL, INC","address":"18700 JOHN F KENNEDY BLVD     ","zip":"77032","lat":"29.9865191","lng":"-95.3416698"},{"id":"28343","barId":"2091","paid":"2778.62","rev":"41471.940298507456","taxId":"MB441307","name":"THE RAVEN GRILL               ","address":"1916 BISSONNET ST             ","zip":"77005","lat":"29.725948","lng":"-95.4061914"},{"id":"28373","barId":"2093","paid":"41.2","rev":"614.9253731343283","taxId":"MB441459","name":"HOUSTON CENTER CLUB           ","address":"1100 CAROLINE ST FL 11        ","zip":"77002","lat":"29.752554","lng":"-95.3704009"},{"id":"28574","barId":"2107","paid":"1127.14","rev":"16822.985074626868","taxId":"MB442367","name":"FOUR POINTS BY SHERATON       ","address":"2828 SOUTHWEST FWY            ","zip":"77098","lat":"29.7313513","lng":"-95.4228009"},{"id":"28643","barId":"2112","paid":"2152.64","rev":"32128.95522388059","taxId":"MB442614","name":"BOUDREAUX'S CAJUN KITCHEN     ","address":"5475 WEST LOOP S STE 100      ","zip":"77081","lat":"29.7229371","lng":"-95.4586728"},{"id":"28658","barId":"2113","paid":"0","rev":"0","taxId":"MB442789","name":"THE STATE BAR AND LOUNGE      ","address":"909 TEXAS ST STE 2A           ","zip":"77002","lat":"29.7605731","lng":"-95.3626966"},{"id":"28686","barId":"2115","paid":"772.64","rev":"11531.940298507461","taxId":"MB442933","name":"FACES CLUB                    ","address":"1453 WITTE RD                 ","zip":"77080","lat":"29.7962748","lng":"-95.5402242"},{"id":"28745","barId":"2119","paid":"4986.34","rev":"74422.98507462686","taxId":"MB443341","name":"HOSPITALITY INTERNATIONAL INC ","address":"5150 WESTHEIMER               ","zip":"77056","lat":"29.7411784","lng":"-95.4665951"},{"id":"28824","barId":"2125","paid":"1025.1","rev":"15299.999999999998","taxId":"MB443575","name":"MASSA'S SEAFOOD GRILL         ","address":"1331 LAMAR ST STE 114         ","zip":"77010","lat":"29.754491","lng":"-95.362643"},{"id":"28884","barId":"2129","paid":"7545.67","rev":"112621.94029850746","taxId":"MB443755","name":"FOX AND HOUND ENGLISH PUB \u0026 GR","address":"11470 WESTHEIMER RD           ","zip":"77077","lat":"29.7370739","lng":"-95.5791618"},{"id":"28914","barId":"2131","paid":"4850.53","rev":"72395.97014925373","taxId":"MB443955","name":"THE COVER GIRLS               ","address":"10310 W LITTLE YORK RD        ","zip":"77041","lat":"29.867926","lng":"-95.55437"},{"id":"29026","barId":"2140","paid":"2368.58","rev":"35351.94029850746","taxId":"MB445151","name":"LOS CUCOS MEXICAN CAFE        ","address":"10690 NORTHWEST FWY           ","zip":"77092","lat":"29.8140641","lng":"-95.4619157"},{"id":"29056","barId":"2142","paid":"479.18","rev":"7151.940298507462","taxId":"MB445275","name":"PREMIER HOSPITALITY, INC.     ","address":"1601 NASA PKWY                ","zip":"77058","lat":"29.5518207","lng":"-95.0981554"},{"id":"29163","barId":"2150","paid":"2242.42","rev":"33468.9552238806","taxId":"MB446002","name":"HOSPITALITY INTERNATIONAL INC ","address":"1750 WEST LOOP S              ","zip":"77027","lat":"29.7495487","lng":"-95.456936"},{"id":"29349","barId":"2164","paid":"483.6","rev":"7217.910447761194","taxId":"MB446844","name":"HOSPITALITY INTERNATIONAL INC ","address":"9190 GULF FWY                 ","zip":"77017","lat":"29.6556028","lng":"-95.2549166"},{"id":"29379","barId":"2166","paid":"0","rev":"0","taxId":"MB446875","name":"PREMIER HOSPITALITY, INC.     ","address":"3100 CLEBURNE ST              ","zip":"77004","lat":"29.7223208","lng":"-95.3597409"},{"id":"29394","barId":"2167","paid":"803.06","rev":"11985.97014925373","taxId":"MB447024","name":"IRMA'S SOUTHWEST GRILL        ","address":"1314 TEXAS ST # 100           ","zip":"77002","lat":"29.7576198","lng":"-95.3596559"},{"id":"29557","barId":"2178","paid":"527.82","rev":"7877.9104477611945","taxId":"MB447879","name":"MASRAFF'S ON POST OAK LANE    ","address":"1025 S POST OAK LN            ","zip":"77056","lat":"29.7571886","lng":"-95.4626169"},{"id":"29648","barId":"2185","paid":"8789.52","rev":"131186.86567164178","taxId":"MB448563","name":"RITZ HOUSTON                  ","address":"10520 GULF FWY                ","zip":"77034","lat":"29.6397998","lng":"-95.2430534"},{"id":"29707","barId":"2189","paid":"2412.73","rev":"36010.895522388055","taxId":"MB448885","name":"HOSPITALITY INTERNANTIONAL INC","address":"1600 HOLCOMBE BLVD            ","zip":"77030","lat":"29.7056712","lng":"-95.3957091"},{"id":"29784","barId":"2195","paid":"248.3","rev":"3705.9701492537315","taxId":"MB449411","name":"CABANA BEVERAGES INC          ","address":"6750 HIGHWAY 6 N              ","zip":"77084","lat":"29.8756574","lng":"-95.6447773"},{"id":"29814","barId":"2197","paid":"429.67","rev":"6412.985074626866","taxId":"MB449458","name":"CABANA BEVERAGES INC          ","address":"10325 NORTH FWY               ","zip":"77037","lat":"29.9164903","lng":"-95.4137057"},{"id":"29844","barId":"2199","paid":"1841.29","rev":"27481.94029850746","taxId":"MB449820","name":"CHILOS SEAFOOD RESTAURANT     ","address":"8334 GULF FWY                 ","zip":"77017","lat":"29.6763954","lng":"-95.2691667"},{"id":"29889","barId":"2202","paid":"2401.54","rev":"35843.880597014926","taxId":"MB450105","name":"WILLIE'S GRILL \u0026 ICEHOUSE     ","address":"19770 TOMBALL PKWY            ","zip":"77070","lat":"29.9825564","lng":"-95.5678509"},{"id":"29919","barId":"2204","paid":"8147.33","rev":"121601.94029850746","taxId":"MB450333","name":"CHAMPPS ENTERTAINMENT OF TEXAS","address":"1121 UPTOWN PARK BLVD         ","zip":"77056","lat":"29.7571931","lng":"-95.4566919"},{"id":"29976","barId":"2210","paid":"433.15","rev":"6464.925373134328","taxId":"MB450750","name":"BEAMER'S PLACE                ","address":"12057 BEAMER RD               ","zip":"77089","lat":"29.5951271","lng":"-95.2256931"},{"id":"30036","barId":"2214","paid":"1430.45","rev":"21350","taxId":"MB451177","name":"LOGAN'S ROADHOUSE             ","address":"12950 NORTHWEST FWY           ","zip":"77040","lat":"29.8453514","lng":"-95.4976261"},{"id":"30439","barId":"2243","paid":"0","rev":"0","taxId":"MB453990","name":"NINFA'S                       ","address":"1200 MCKINNEY ST STE 355      ","zip":"77010","lat":"29.7553371","lng":"-95.3625904"},{"id":"30636","barId":"2257","paid":"1579.92","rev":"23580.89552238806","taxId":"MB455664","name":"THIRD BASE                    ","address":"16504 SEA LARK RD             ","zip":"77062","lat":"29.5572402","lng":"-95.1243762"},{"id":"30666","barId":"2259","paid":"822.55","rev":"12276.86567164179","taxId":"MB455746","name":"TAMPICO SEAFOOD \u0026 COMIDA MEXIC","address":"2115 AIRLINE DR               ","zip":"77009","lat":"29.8066438","lng":"-95.3821981"},{"id":"30809","barId":"2270","paid":"22154.48","rev":"330663.8805970149","taxId":"MB456478","name":"THE ST JAMES RESTAURANT \u0026 CABA","address":"555 RANKIN RD                 ","zip":"77073","lat":"29.9666029","lng":"-95.4079268"},{"id":"30856","barId":"2273","paid":"5238.79","rev":"78190.89552238805","taxId":"MB456670","name":"CRAZY FROGS SALOON            ","address":"17776 STATE HIGHWAY 249 STE   ","zip":"77064","lat":"29.960105","lng":"-95.5438517"},{"id":"30886","barId":"2275","paid":"3180.49","rev":"47469.99999999999","taxId":"MB456928","name":"THE HARP                      ","address":"1625 RICHMOND AVE             ","zip":"77006","lat":"29.734099","lng":"-95.400653"},{"id":"31235","barId":"2301","paid":"9595.87","rev":"143221.94029850746","taxId":"MB458891","name":"SHERLOCK'S BAKER ST PUB-CLEAR ","address":"2416 BAY AREA BLVD E          ","zip":"77058","lat":"29.5737473","lng":"-95.1074199"},{"id":"31267","barId":"2304","paid":"747.58","rev":"11157.910447761195","taxId":"MB459231","name":"LOS PEREZ MEXICAN RESTAURANT  ","address":"9439 HIGHWAY 6 S              ","zip":"77083","lat":"29.7036472","lng":"-95.6429517"},{"id":"31312","barId":"2307","paid":"989.65","rev":"14770.895522388058","taxId":"MB459333","name":"LA CABANA MEXICAN RESTAURANT  ","address":"3390 FM 1960 RD W             ","zip":"77338","lat":"30.018866","lng":"-95.375749"},{"id":"31446","barId":"2318","paid":"1447.53","rev":"21604.925373134327","taxId":"MB460778","name":"CELLAR BAR                    ","address":"16611 SEALARK                 ","zip":"77062","lat":"29.556072","lng":"-95.122886"},{"id":"31461","barId":"2319","paid":"614.52","rev":"9171.940298507461","taxId":"MB460784","name":"JUAREZ MEXICAN RESTURANT      ","address":"2545 GESSNER DR               ","zip":"77080","lat":"29.817966","lng":"-95.545584"},{"id":"31809","barId":"2343","paid":"1242.58","rev":"18545.970149253728","taxId":"MB463735","name":"CASA IMPERIAL MEXICAN RESTAURA","address":"10923 FM 1960 RD W            ","zip":"77070","lat":"29.9335263","lng":"-95.5838927"},{"id":"31854","barId":"2348","paid":"15627.08","rev":"233239.99999999997","taxId":"MB464006","name":"MICHAEL'S INTERNATIONAL       ","address":"6440 SOUTHWEST FWY            ","zip":"77074","lat":"29.719682","lng":"-95.497359"},{"id":"31974","barId":"2357","paid":"249.1","rev":"3717.9104477611936","taxId":"MB464949","name":"CARLOS MEXICAN RESTAURANT     ","address":"3603 ALDINE MAIL ROUTE RD     ","zip":"77039","lat":"29.902454","lng":"-95.3374715"},{"id":"32126","barId":"2367","paid":"1960.35","rev":"29258.955223880595","taxId":"MB465452","name":"I C I T INC                   ","address":"9115 BLUEBERRY ST             ","zip":"77049","lat":"29.857703","lng":"-95.149815"},{"id":"32141","barId":"2368","paid":"11965.32","rev":"178586.86567164178","taxId":"MB465485","name":"THE SPLENDOR                  ","address":"7440 W GREENS RD              ","zip":"77064","lat":"29.9533915","lng":"-95.5415404"},{"id":"32156","barId":"2369","paid":"1827.02","rev":"27268.955223880595","taxId":"MB465487","name":"510 BAR #2                    ","address":"7410 FAIRBANKS N HOUSTON RD   ","zip":"77040","lat":"29.8820149","lng":"-95.5250951"},{"id":"32274","barId":"2379","paid":"8842.19","rev":"131972.98507462686","taxId":"MB465969","name":"FOGO DE CHAO                  ","address":"8250 WESTHEIMER RD            ","zip":"77063","lat":"29.7381232","lng":"-95.511914"},{"id":"32289","barId":"2380","paid":"1886.78","rev":"28160.89552238806","taxId":"MB465981","name":"SHERATON SUITES RESTAURANT    ","address":"2400 WEST LOOP S              ","zip":"77027","lat":"29.7423304","lng":"-95.4585841"},{"id":"32363","barId":"2385","paid":"3691.7","rev":"55099.99999999999","taxId":"MB466311","name":"HOME PLATE BAR \u0026 GRILL        ","address":"1800 TEXAS ST STE 100         ","zip":"77003","lat":"29.755501","lng":"-95.3555056"},{"id":"32424","barId":"2389","paid":"9531.82","rev":"142265.97014925373","taxId":"MB466540","name":"MAGGIANO' LITTLE ITALY        ","address":"2019 POST OAK BLVD            ","zip":"77056","lat":"29.7451544","lng":"-95.4602834"},{"id":"32498","barId":"2394","paid":"3450.23","rev":"51495.97014925373","taxId":"MB467202","name":"FAST EDDIE'S NEIGHBORHOOD BILL","address":"12344 GULF FREEWAY            ","zip":"77034","lat":"29.6179085","lng":"-95.2202388"},{"id":"32566","barId":"2399","paid":"2235.45","rev":"33364.92537313433","taxId":"MB467473","name":"TEXAS LAND \u0026 CATTLE STEAK HOUS","address":"12313 KATY FWY                ","zip":"77079","lat":"29.783812","lng":"-95.6047666"},{"id":"32641","barId":"2404","paid":"1866.35","rev":"27855.970149253728","taxId":"MB468195","name":"CHILIS GRILL \u0026 BAR            ","address":"6121 WESTHEIMER RD            ","zip":"77057","lat":"29.73726","lng":"-95.4902898"},{"id":"32780","barId":"2414","paid":"50787.74","rev":"758025.9701492536","taxId":"MB468751","name":"9 AMIGOS/CRAWFORD STREET CAFE/","address":"501 CRAWFORD ST               ","zip":"77002","lat":"29.7561931","lng":"-95.3556745"},{"id":"32810","barId":"2416","paid":"769.42","rev":"11483.880597014924","taxId":"MB468840","name":"LOS VEGA MEXICAN RESTAURANT   ","address":"6840 FM 1960 RD E             ","zip":"77346","lat":"29.9983336","lng":"-95.171772"},{"id":"32920","barId":"2424","paid":"6440.17","rev":"96121.94029850746","taxId":"MB469671","name":"GOODE COMPANY SEAFOOD         ","address":"10211 KATY FWY                ","zip":"77024","lat":"29.7829105","lng":"-95.5484119"},{"id":"32968","barId":"2428","paid":"1089.88","rev":"16266.865671641792","taxId":"MB469831","name":"IRMA'S                        ","address":"22 N CHENEVERT ST             ","zip":"77002","lat":"29.7602196","lng":"-95.352207"},{"id":"32996","barId":"2430","paid":"594.08","rev":"8866.865671641792","taxId":"MB469856","name":"CHARIVARI RESTAURANT AND BAR  ","address":"2521 BAGBY ST                 ","zip":"77006","lat":"29.7487671","lng":"-95.3790128"},{"id":"33041","barId":"2433","paid":"14179.94","rev":"211640.89552238805","taxId":"MB470301","name":"THE FLYING SAUCER DRAUGHT EMPO","address":"705 MAIN ST STE A             ","zip":"77002","lat":"29.7588934","lng":"-95.3631059"},{"id":"33142","barId":"2441","paid":"3825.96","rev":"57103.880597014926","taxId":"MB470565","name":"THE CONTINENTAL CLUB          ","address":"3700 MAIN ST                  ","zip":"77002","lat":"29.7385682","lng":"-95.3799289"},{"id":"33156","barId":"2442","paid":"2123.16","rev":"31688.95522388059","taxId":"MB470570","name":"MULDOON'S                     ","address":"2611 AUGUSTA DR               ","zip":"77057","lat":"29.7390757","lng":"-95.4822122"},{"id":"33171","barId":"2443","paid":"10217.09","rev":"152493.8805970149","taxId":"MB470651","name":"THE CAPITAL GRILLE            ","address":"5365 WESTHEIMER RD            ","zip":"77056","lat":"29.7390814","lng":"-95.4696126"},{"id":"33186","barId":"2444","paid":"476.1","rev":"7105.9701492537315","taxId":"MB470684","name":"SKEETER'S                     ","address":"4121 W LAKE HOUSTON PKWY      ","zip":"77339","lat":"30.0660336","lng":"-95.1889663"},{"id":"33249","barId":"2450","paid":"4012.22","rev":"59883.88059701492","taxId":"MB471188","name":"TROPICANA NITE CLUB           ","address":"3222 FONDREN RD               ","zip":"77063","lat":"29.7295179","lng":"-95.5212069"},{"id":"33294","barId":"2453","paid":"894.38","rev":"13348.955223880595","taxId":"MB471559","name":"PELAZZIO BANQUETS CATERING AND","address":"12121 WESTHEIMER RD STE 130   ","zip":"77077","lat":"29.7354095","lng":"-95.593446"},{"id":"33315","barId":"2455","paid":"2204.5","rev":"32902.985074626864","taxId":"MB471800","name":"MOULIN ROUGE                  ","address":"8930 WINKLER DR               ","zip":"77017","lat":"29.6701553","lng":"-95.2563011"},{"id":"33375","barId":"2459","paid":"118.45","rev":"1767.910447761194","taxId":"MB471939","name":"ART OF THE SPIRITS INC        ","address":"5601 MAIN ST                  ","zip":"77005","lat":"29.7252493","lng":"-95.3894435"},{"id":"33390","barId":"2460","paid":"922.65","rev":"13770.895522388058","taxId":"MB472036","name":"LOGAN'S ROADHOUSE             ","address":"2200 SOUTH HWY 6              ","zip":"77077","lat":"29.7417161","lng":"-95.644966"},{"id":"33420","barId":"2462","paid":"2228.28","rev":"33257.9104477612","taxId":"MB472201","name":"RAGIN CAJUN                   ","address":"80 WOODLAKE SQ                ","zip":"77063","lat":"29.7375614","lng":"-95.5373697"},{"id":"33435","barId":"2463","paid":"1365.59","rev":"20381.94029850746","taxId":"MB472259","name":"TEXAS LAND \u0026 CATTLE STEAK HOUS","address":"8015 CYPRESS CREEK PKWY       ","zip":"77070","lat":"29.9606959","lng":"-95.5473985"},{"id":"33495","barId":"2467","paid":"8223.24","rev":"122734.92537313432","taxId":"MB472437","name":"IBIZA FOOD \u0026 WINE BAR         ","address":"2450 LOUISIANA ST # 300       ","zip":"77006","lat":"29.7474697","lng":"-95.3769031"},{"id":"33568","barId":"2472","paid":"1253.43","rev":"18707.910447761195","taxId":"MB472648","name":"THE SPAGHETTI WESTERN ITALIAN ","address":"1608 SHEPHERD DR              ","zip":"77007","lat":"29.7749992","lng":"-95.4093611"},{"id":"33595","barId":"2474","paid":"4159.69","rev":"62084.92537313432","taxId":"MB472766","name":"CAFE ADOBE                    ","address":"7620 KATY FWY STE 355         ","zip":"77024","lat":"29.7857878","lng":"-95.4647994"},{"id":"33655","barId":"2478","paid":"2080.35","rev":"31049.999999999996","taxId":"MB472842","name":"BOUDREAUX'S CAJUN KITCHEN     ","address":"2903 WOODRIDGE DR # 100       ","zip":"77087","lat":"29.7003675","lng":"-95.2967196"},{"id":"33847","barId":"2492","paid":"9856.43","rev":"147110.89552238805","taxId":"MB474048","name":"FRONT PORCH PUB               ","address":"217 GRAY ST                   ","zip":"77002","lat":"29.7526438","lng":"-95.3774935"},{"id":"33891","barId":"2495","paid":"3093.18","rev":"46166.86567164178","taxId":"MB474326","name":"FAST EDDIES                   ","address":"5020 FM 1960 RD W STE A25     ","zip":"77069","lat":"29.984275","lng":"-95.506379"},{"id":"33951","barId":"2500","paid":"4150.71","rev":"61950.895522388055","taxId":"MB474555","name":"BARNEY'S BILLIARD SALOON NO 20","address":"8471 GULF FWY                 ","zip":"77017","lat":"29.6720502","lng":"-95.2638749"},{"id":"33980","barId":"2502","paid":"1987.82","rev":"29668.955223880595","taxId":"MB474749","name":"AVANT GARDEN                  ","address":"411 WESTHEIMER RD             ","zip":"77006","lat":"29.7443746","lng":"-95.3864793"},{"id":"34025","barId":"2505","paid":"515.63","rev":"7695.970149253731","taxId":"MB474999","name":"MACAYO'S MEXICAN RESTAURANT \u0026 ","address":"24814 KUYKENDAHL RD STE 150B  ","zip":"77375","lat":"30.0628793","lng":"-95.5005887"},{"id":"34262","barId":"2523","paid":"5434.1","rev":"81105.97014925373","taxId":"MB476067","name":"LITTLE GRINGO'S KITCHEN INC.  ","address":"12348 GULF FWY                ","zip":"77034","lat":"29.6183804","lng":"-95.2191417"},{"id":"34277","barId":"2524","paid":"1126","rev":"16805.97014925373","taxId":"MB476068","name":"JUANITA'S MEXICAN RESTAURANT A","address":"2728 W T C JESTER BLVD        ","zip":"77018","lat":"29.8098707","lng":"-95.4427426"},{"id":"34422","barId":"2535","paid":"388.13","rev":"5792.985074626865","taxId":"MB476903","name":"CAZADORES MEXICAN RESTAURANT #","address":"12323 KINGSRIDE LN            ","zip":"77024","lat":"29.7790693","lng":"-95.5452333"},{"id":"34526","barId":"2542","paid":"6139.88","rev":"91640","taxId":"MB477278","name":"PAPPASITO'S CANTINA           ","address":"13070 NORTHWEST FWY           ","zip":"77040","lat":"29.8464766","lng":"-95.4989367"},{"id":"34570","barId":"2545","paid":"12164.18","rev":"181554.92537313432","taxId":"MB477453","name":"PAPPASITO'S CANTINA           ","address":"10409 KATY FWY                ","zip":"77024","lat":"29.7833165","lng":"-95.5550769"},{"id":"34585","barId":"2546","paid":"1935.42","rev":"28886.86567164179","taxId":"MB477455","name":"JACK'S FOR COCKTAILS          ","address":"11720 S WILCREST DR           ","zip":"77099","lat":"29.651819","lng":"-95.5703936"},{"id":"34600","barId":"2547","paid":"0","rev":"0","taxId":"MB477457","name":"CAFE PAPPADEAUX               ","address":"2226 FM 1960 RD W             ","zip":"77090","lat":"30.0080047","lng":"-95.4621282"},{"id":"34615","barId":"2548","paid":"252.25","rev":"3764.9253731343283","taxId":"MB477459","name":"CABANA BEVERAGE INC           ","address":"13455 EAST FWY                ","zip":"77015","lat":"29.7712777","lng":"-95.1839324"},{"id":"34645","barId":"2550","paid":"1026.37","rev":"15318.955223880594","taxId":"MB477532","name":"TEXAS LAND \u0026 CATTLE STEAK HOUS","address":"11900 DICKINSON RD            ","zip":"77089","lat":"29.6068585","lng":"-95.2102721"},{"id":"34675","barId":"2552","paid":"2034.79","rev":"30369.999999999996","taxId":"MB477655","name":"BUCA DE BEPPO                 ","address":"5192 BUFFALO SPEEDWAY         ","zip":"77005","lat":"29.7269492","lng":"-95.42832"},{"id":"34859","barId":"2564","paid":"1747.42","rev":"26080.89552238806","taxId":"MB478495","name":"DON CARLOS MEXICAN RESTAURANT ","address":"6501 SOUTHWEST FWY            ","zip":"77074","lat":"29.717665","lng":"-95.4969069"},{"id":"35003","barId":"2574","paid":"2281.08","rev":"34045.97014925373","taxId":"MB480201","name":"OSTIONERIA LAS ROCAS          ","address":"7220 AIRLINE DR STE A3        ","zip":"77076","lat":"29.8667794","lng":"-95.3843899"},{"id":"35048","barId":"2577","paid":"10672.36","rev":"159288.9552238806","taxId":"MB480318","name":"PAPPASITO'S CANTINA           ","address":"2515 S LOOP W                 ","zip":"77054","lat":"29.6767657","lng":"-95.4155783"},{"id":"35063","barId":"2578","paid":"4228.5","rev":"63111.940298507456","taxId":"MB480528","name":"ROYAL OAKS COUNTRY CLUB       ","address":"2910 ROYAL OAKS CLUB DR       ","zip":"77082","lat":"29.7291851","lng":"-95.5855608"},